,stop_id,stop_name,stop_lon,stop_lat,agency,route_id,route_short_name,route_long_name
0,5,SANTA MONICA EB & 6TH NS,-118.49333200000001,34.017885,Big Blue Bus,2981,1,Main St & Santa Monica Blvd/UCLA
1,6,SANTA MONICA EB & CENTINELA FS,-118.467514,34.038631,Big Blue Bus,2981,1,Main St & Santa Monica Blvd/UCLA
2,8,UCLA HILGARD TERMINAL,-118.43842,34.071141,Big Blue Bus,2981,1,Main St & Santa Monica Blvd/UCLA
3,21,4TH NB & COLORADO FS (Downtown SM Station),-118.49245,34.014137,Big Blue Bus,2981,1,Main St & Santa Monica Blvd/UCLA
4,149,SANTA MONICA EB & YALE FS,-118.47128300000001,34.035664000000004,Big Blue Bus,2981,1,Main St & Santa Monica Blvd/UCLA
5,150,SANTA MONICA EB & WESTGATE NS,-118.459252,34.042294,Big Blue Bus,2981,1,Main St & Santa Monica Blvd/UCLA
6,151,SANTA MONICA EB & BUNDY NS,-118.463329,34.040462,Big Blue Bus,2981,1,Main St & Santa Monica Blvd/UCLA
7,170,WESTWOOD NB & LE CONTE NS,-118.445227,34.063626,Big Blue Bus,2981,1,Main St & Santa Monica Blvd/UCLA
8,187,MAIN NB & HILL NS,-118.482504,34.000982,Big Blue Bus,2981,1,Main St & Santa Monica Blvd/UCLA
9,227,SANTA MONICA EB & 4TH FS,-118.494998,34.016521999999995,Big Blue Bus,2981,1,Main St & Santa Monica Blvd/UCLA
10,283,4TH NB & PICO FS,-118.48766200000001,34.010065000000004,Big Blue Bus,2981,1,Main St & Santa Monica Blvd/UCLA
11,338,MAIN NB & OCEAN PARK FS,-118.483979,34.002410999999995,Big Blue Bus,2981,1,Main St & Santa Monica Blvd/UCLA
12,360,MAIN NB & WESTMINSTER FS,-118.47261999999999,33.990196999999995,Big Blue Bus,2981,1,Main St & Santa Monica Blvd/UCLA
13,361,MAIN NB & ABBOT KINNEY NS,-118.47405400000001,33.992288,Big Blue Bus,2981,1,Main St & Santa Monica Blvd/UCLA
14,362,MAIN NB & SUNSET FS,-118.47636000000001,33.994576,Big Blue Bus,2981,1,Main St & Santa Monica Blvd/UCLA
15,363,MAIN NB & ROSE NS,-118.477639,33.996103999999995,Big Blue Bus,2981,1,Main St & Santa Monica Blvd/UCLA
16,364,MAIN NB & ASHLAND NS,-118.48106100000001,33.999526,Big Blue Bus,2981,1,Main St & Santa Monica Blvd/UCLA
17,365,MAIN NB & HOLLISTER NS,-118.485685,34.004108,Big Blue Bus,2981,1,Main St & Santa Monica Blvd/UCLA
18,366,MAIN NB & PACIFIC NS,-118.487292,34.005609,Big Blue Bus,2981,1,Main St & Santa Monica Blvd/UCLA
19,367,MAIN NB & BAY NS,-118.48891,34.007163,Big Blue Bus,2981,1,Main St & Santa Monica Blvd/UCLA
20,368,SANTA MONICA EB & LINCOLN NS,-118.49141599999999,34.019472,Big Blue Bus,2981,1,Main St & Santa Monica Blvd/UCLA
21,369,SANTA MONICA EB & 11TH NS,-118.488553,34.021731,Big Blue Bus,2981,1,Main St & Santa Monica Blvd/UCLA
22,370,SANTA MONICA EB & 14TH NS,-118.48573300000001,34.023990999999995,Big Blue Bus,2981,1,Main St & Santa Monica Blvd/UCLA
23,373,SANTA MONICA EB & 20TH FS,-118.47988600000001,34.028707,Big Blue Bus,2981,1,Main St & Santa Monica Blvd/UCLA
24,374,SANTA MONICA EB & 22ND FS,-118.478122,34.030141,Big Blue Bus,2981,1,Main St & Santa Monica Blvd/UCLA
25,375,SANTA MONICA EB & CLOVERFIELD FS,-118.47681499999999,34.031208,Big Blue Bus,2981,1,Main St & Santa Monica Blvd/UCLA
26,376,SANTA MONICA EB & 26TH NS,-118.47431100000001,34.033225,Big Blue Bus,2981,1,Main St & Santa Monica Blvd/UCLA
27,378,SANTA MONICA EB & BERKELEY NS,-118.46963799999999,34.036981,Big Blue Bus,2981,1,Main St & Santa Monica Blvd/UCLA
28,379,SANTA MONICA EB & WELLESLEY NS,-118.46554099999999,34.039484,Big Blue Bus,2981,1,Main St & Santa Monica Blvd/UCLA
29,380,SANTA MONICA EB & BROCKTON NS,-118.461421,34.041306,Big Blue Bus,2981,1,Main St & Santa Monica Blvd/UCLA
30,381,SANTA MONICA EB & BARRINGTON NS,-118.45606799999999,34.043667,Big Blue Bus,2981,1,Main St & Santa Monica Blvd/UCLA
31,382,SANTA MONICA EB & FEDERAL FS,-118.453724,34.044726000000004,Big Blue Bus,2981,1,Main St & Santa Monica Blvd/UCLA
32,384,SANTA MONICA EB & CORINTH NS,-118.44963500000001,34.046092,Big Blue Bus,2981,1,Main St & Santa Monica Blvd/UCLA
33,385,SANTA MONICA EB & SAWTELLE NS,-118.448457,34.046433,Big Blue Bus,2981,1,Main St & Santa Monica Blvd/UCLA
34,387,SANTA MONICA EB & SEPULVEDA FS,-118.44363700000001,34.047755,Big Blue Bus,2981,1,Main St & Santa Monica Blvd/UCLA
35,388,SANTA MONICA EB & VETERAN NS,-118.440125,34.048743,Big Blue Bus,2981,1,Main St & Santa Monica Blvd/UCLA
36,389,WESTWOOD NB & SANTA MONICA FS,-118.43751999999999,34.050456,Big Blue Bus,2981,1,Main St & Santa Monica Blvd/UCLA
37,395,WESTWOOD NB & MASSACHUSETTS NS,-118.438624,34.051805,Big Blue Bus,2981,1,Main St & Santa Monica Blvd/UCLA
38,396,WESTWOOD NB & OHIO NS,-118.440615,34.054058000000005,Big Blue Bus,2981,1,Main St & Santa Monica Blvd/UCLA
39,397,WESTWOOD NB & ROCHESTER NS,-118.442168,34.056078,Big Blue Bus,2981,1,Main St & Santa Monica Blvd/UCLA
40,398,WESTWOOD NB & WILSHIRE NS,-118.443821,34.058733000000004,Big Blue Bus,2981,1,Main St & Santa Monica Blvd/UCLA
41,402,WESTWOOD NB & WEYBURN NS,-118.44525800000001,34.062525,Big Blue Bus,2981,1,Main St & Santa Monica Blvd/UCLA
42,403,LE CONTE EB & TIVERTON NS,-118.442586,34.063656,Big Blue Bus,2981,1,Main St & Santa Monica Blvd/UCLA
43,405,HILGARD NB & MANNING AVE NS,-118.439568,34.066514,Big Blue Bus,2981,1,Main St & Santa Monica Blvd/UCLA
44,406,HILGARD NB & WESTHOLME NS,-118.438864,34.069494,Big Blue Bus,2981,1,Main St & Santa Monica Blvd/UCLA
45,1115,MAIN NB & MARINE NS,-118.479519,33.997989000000004,Big Blue Bus,2981,1,Main St & Santa Monica Blvd/UCLA
46,1149,WESTWOOD PLAZA NB & J STEIN EYE FS,-118.44523000000001,34.065102,Big Blue Bus,2981,1,Main St & Santa Monica Blvd/UCLA
47,1234,SANTA MONICA EB & 17TH FS,-118.48275,34.026412,Big Blue Bus,2981,1,Main St & Santa Monica Blvd/UCLA
48,1305,MAIN NB & MARKET NS,-118.47152700000001,33.988695,Big Blue Bus,2981,1,Main St & Santa Monica Blvd/UCLA
49,1328,CHARLES E YOUNG @ P2 GARAGE,-118.440238,34.068616,Big Blue Bus,2981,1,Main St & Santa Monica Blvd/UCLA
50,8,UCLA HILGARD TERMINAL,-118.43842,34.071141,Big Blue Bus,2981,1,Main St & Santa Monica Blvd/UCLA
51,34,4TH SB & SANTA MONICA PLACE (Downtown SM Station),-118.492515,34.014074,Big Blue Bus,2981,1,Main St & Santa Monica Blvd/UCLA
52,154,SANTA MONICA WB & BUNDY NS,-118.46323100000001,34.040615,Big Blue Bus,2981,1,Main St & Santa Monica Blvd/UCLA
53,155,SANTA MONICA WB & WELLESLEY NS,-118.46545400000001,34.039627,Big Blue Bus,2981,1,Main St & Santa Monica Blvd/UCLA
54,168,MAIN SB & VENICE WAY NS,-118.470739,33.987398999999996,Big Blue Bus,2981,1,Main St & Santa Monica Blvd/UCLA
55,202,MAIN SB & MARINE NS,-118.479891,33.998248,Big Blue Bus,2981,1,Main St & Santa Monica Blvd/UCLA
56,258,HILGARD SB & WESTHOLME FS,-118.43896200000002,34.069511999999996,Big Blue Bus,2981,1,Main St & Santa Monica Blvd/UCLA
57,261,HILGARD SB & MANNING DR FS,-118.43936200000002,34.067006,Big Blue Bus,2981,1,Main St & Santa Monica Blvd/UCLA
58,286,PICO WB & 4TH FS,-118.487596,34.009465000000006,Big Blue Bus,2981,1,Main St & Santa Monica Blvd/UCLA
59,302,LE CONTE WB & TIVERTON FS,-118.44314299999999,34.063771,Big Blue Bus,2981,1,Main St & Santa Monica Blvd/UCLA
60,303,WESTWOOD SB & WEYBURN NS,-118.445498,34.06265,Big Blue Bus,2981,1,Main St & Santa Monica Blvd/UCLA
61,304,WESTWOOD SB & LINDBROOK NS,-118.44483799999999,34.059653000000004,Big Blue Bus,2981,1,Main St & Santa Monica Blvd/UCLA
62,306,WESTWOOD SB & ROCHESTER NS,-118.44238700000001,34.05623,Big Blue Bus,2981,1,Main St & Santa Monica Blvd/UCLA
63,307,WESTWOOD SB & OHIO NS,-118.44081100000001,34.054128999999996,Big Blue Bus,2981,1,Main St & Santa Monica Blvd/UCLA
64,310,SANTA MONICA WB & WESTWOOD FS,-118.437431,34.049731,Big Blue Bus,2981,1,Main St & Santa Monica Blvd/UCLA
65,314,SANTA MONICA WB & SAWTELLE NS,-118.448076,34.046622,Big Blue Bus,2981,1,Main St & Santa Monica Blvd/UCLA
66,316,SANTA MONICA WB & PURDUE NS,-118.450671,34.045893,Big Blue Bus,2981,1,Main St & Santa Monica Blvd/UCLA
67,317,SANTA MONICA WB & FEDERAL NS,-118.45393200000001,34.044734999999996,Big Blue Bus,2981,1,Main St & Santa Monica Blvd/UCLA
68,319,SANTA MONICA WB & WESTGATE NS,-118.45918600000002,34.042428,Big Blue Bus,2981,1,Main St & Santa Monica Blvd/UCLA
69,320,SANTA MONICA WB & BROCKTON NS,-118.461269,34.041494,Big Blue Bus,2981,1,Main St & Santa Monica Blvd/UCLA
70,321,SANTA MONICA WB & CENTINELA FS,-118.46806000000001,34.038415,Big Blue Bus,2981,1,Main St & Santa Monica Blvd/UCLA
71,322,SANTA MONICA WB & BERKELEY NS,-118.469573,34.037178000000004,Big Blue Bus,2981,1,Main St & Santa Monica Blvd/UCLA
72,323,SANTA MONICA WB & YALE FS,-118.471752,34.03543,Big Blue Bus,2981,1,Main St & Santa Monica Blvd/UCLA
73,324,SANTA MONICA WB & 26TH NS,-118.474267,34.033404,Big Blue Bus,2981,1,Main St & Santa Monica Blvd/UCLA
74,325,SANTA MONICA WB & CLOVERFIELD NS,-118.476979,34.031217,Big Blue Bus,2981,1,Main St & Santa Monica Blvd/UCLA
75,326,SANTA MONICA WB & 22ND NS,-118.478242,34.030186,Big Blue Bus,2981,1,Main St & Santa Monica Blvd/UCLA
76,327,SANTA MONICA WB & 20TH FS,-118.48038700000001,34.028428999999996,Big Blue Bus,2981,1,Main St & Santa Monica Blvd/UCLA
77,330,SANTA MONICA WB & 14TH NS,-118.48566799999999,34.02417,Big Blue Bus,2981,1,Main St & Santa Monica Blvd/UCLA
78,331,SANTA MONICA WB & 11TH FS,-118.488749,34.021685999999995,Big Blue Bus,2981,1,Main St & Santa Monica Blvd/UCLA
79,332,SANTA MONICA WB & LINCOLN NS,-118.49138400000001,34.019633,Big Blue Bus,2981,1,Main St & Santa Monica Blvd/UCLA
80,333,MAIN SB & BAY NS,-118.489051,34.00719,Big Blue Bus,2981,1,Main St & Santa Monica Blvd/UCLA
81,334,MAIN SB & PACIFIC NS,-118.487466,34.005654,Big Blue Bus,2981,1,Main St & Santa Monica Blvd/UCLA
82,335,MAIN SB & HOLLISTER NS,-118.486143,34.00434,Big Blue Bus,2981,1,Main St & Santa Monica Blvd/UCLA
83,336,MAIN SB & OCEAN PARK FS,-118.483717,34.002036,Big Blue Bus,2981,1,Main St & Santa Monica Blvd/UCLA
84,340,MAIN SB & HILL NS,-118.482634,34.000999,Big Blue Bus,2981,1,Main St & Santa Monica Blvd/UCLA
85,341,MAIN SB & ASHLAND NS,-118.481246,33.999552,Big Blue Bus,2981,1,Main St & Santa Monica Blvd/UCLA
86,343,MAIN SB & ROSE FS,-118.477672,33.996005,Big Blue Bus,2981,1,Main St & Santa Monica Blvd/UCLA
87,344,MAIN SB & SUNSET FS,-118.47625,33.994334,Big Blue Bus,2981,1,Main St & Santa Monica Blvd/UCLA
88,345,MAIN SB & BROOKS FS,-118.47406399999998,33.992145,Big Blue Bus,2981,1,Main St & Santa Monica Blvd/UCLA
89,346,MAIN SB & WESTMINSTER NS,-118.47268600000001,33.990107,Big Blue Bus,2981,1,Main St & Santa Monica Blvd/UCLA
90,1126,4TH SB & CIVIC CENTER MB,-118.48878799999999,34.010940000000005,Big Blue Bus,2981,1,Main St & Santa Monica Blvd/UCLA
91,1199,SANTA MONICA WB & SEPULVEDA FS,-118.444902,34.047511,Big Blue Bus,2981,1,Main St & Santa Monica Blvd/UCLA
92,1236,SANTA MONICA WB & VETERAN FS,-118.440474,34.048868,Big Blue Bus,2981,1,Main St & Santa Monica Blvd/UCLA
93,1287,6TH SB & SANTA MONICA FS,-118.493201,34.017813000000004,Big Blue Bus,2981,1,Main St & Santa Monica Blvd/UCLA
94,1305,MAIN NB & MARKET NS,-118.47152700000001,33.988695,Big Blue Bus,2981,1,Main St & Santa Monica Blvd/UCLA
95,1328,CHARLES E YOUNG @ P2 GARAGE,-118.440238,34.068616,Big Blue Bus,2981,1,Main St & Santa Monica Blvd/UCLA
96,1415,SANTA MONICA WB & 17TH FS,-118.483186,34.026178,Big Blue Bus,2981,1,Main St & Santa Monica Blvd/UCLA
97,1512,BROADWAY WB & 5TH NS,-118.492498,34.01607,Big Blue Bus,2981,1,Main St & Santa Monica Blvd/UCLA
98,1597,SANTA MONICA WB & BARRINGTON FS,-118.45636299999998,34.043684000000006,Big Blue Bus,2981,1,Main St & Santa Monica Blvd/UCLA
99,1601,GRAND WB & RIVIERA FS,-118.46963899999999,33.988215000000004,Big Blue Bus,2981,1,Main St & Santa Monica Blvd/UCLA
100,20,PICO EB & 4TH FS,-118.48688700000001,34.009797,Big Blue Bus,2987,7,Pico Blvd
101,34,4TH SB & SANTA MONICA PLACE (Downtown SM Station),-118.492515,34.014074,Big Blue Bus,2987,7,Pico Blvd
102,62,PICO EB & ROBERTSON FS,-118.383408,34.054678,Big Blue Bus,2987,7,Pico Blvd
103,73,PICO EB & BUNDY NS,-118.450235,34.029296,Big Blue Bus,2987,7,Pico Blvd
104,238,PICO EB & WESTWOOD FS,-118.427921,34.040338,Big Blue Bus,2987,7,Pico Blvd
105,245,PICO EB & LINCOLN NS,-118.48314099999999,34.012121,Big Blue Bus,2987,7,Pico Blvd
106,248,PICO EB & BEVERLY NS,-118.395501,34.055223,Big Blue Bus,2987,7,Pico Blvd
107,347,PICO EB & 14TH FS,-118.475559,34.016169,Big Blue Bus,2987,7,Pico Blvd
108,349,PICO EB & 18TH FS,-118.47118999999999,34.018502000000005,Big Blue Bus,2987,7,Pico Blvd
109,350,PICO EB & 20TH NS,-118.469577,34.019345,Big Blue Bus,2987,7,Pico Blvd
110,351,PICO EB & 23RD NS,-118.46659199999999,34.020925,Big Blue Bus,2987,7,Pico Blvd
111,352,PICO EB & CLOVERFIELD FS,-118.465121,34.021732,Big Blue Bus,2987,7,Pico Blvd
112,353,PICO EB & 26TH FS,-118.46195,34.023419,Big Blue Bus,2987,7,Pico Blvd
113,354,PICO EB & 28TH NS,-118.460555,34.024172,Big Blue Bus,2987,7,Pico Blvd
114,355,PICO EB & 30TH NS,-118.458474,34.025240000000004,Big Blue Bus,2987,7,Pico Blvd
115,356,PICO EB & 33RD NS,-118.45536799999999,34.026792,Big Blue Bus,2987,7,Pico Blvd
116,357,PICO EB & CENTINELA FS,-118.45239299999999,34.028237,Big Blue Bus,2987,7,Pico Blvd
117,358,PICO EB & BARRINGTON NS,-118.445799,34.031521000000005,Big Blue Bus,2987,7,Pico Blvd
118,488,PICO EB & MOTOR NS,-118.41073899999999,34.049921000000005,Big Blue Bus,2987,7,Pico Blvd
119,489,PICO EB & AVE OF THE STARS NS,-118.40853700000001,34.051123,Big Blue Bus,2987,7,Pico Blvd
120,736,PICO EB & CENTURY PARK EAST NS,-118.40633400000002,34.052395000000004,Big Blue Bus,2987,7,Pico Blvd
121,737,PICO EB & ROXBURY NS,-118.402276,34.053902,Big Blue Bus,2987,7,Pico Blvd
122,738,PICO EB & BEVERWIL FS,-118.39886200000001,34.054970000000004,Big Blue Bus,2987,7,Pico Blvd
123,739,PICO EB & DOHENY NS,-118.39009899999999,34.055209999999995,Big Blue Bus,2987,7,Pico Blvd
124,740,PICO EB & LIVONIA NS,-118.38651899999999,34.055213,Big Blue Bus,2987,7,Pico Blvd
125,742,PICO EB & SHERBOURNE NS,-118.379654,34.053956,Big Blue Bus,2987,7,Pico Blvd
126,743,PICO EB & LA CIENEGA FS,-118.375844,34.053234,Big Blue Bus,2987,7,Pico Blvd
127,745,PICO EB & CRESCENT HTS NS,-118.37222,34.052458,Big Blue Bus,2987,7,Pico Blvd
128,746,PICO EB & HI POINT NS,-118.368848,34.051888,Big Blue Bus,2987,7,Pico Blvd
129,747,PICO EB & FAIRFAX FS,-118.366326,34.051396999999994,Big Blue Bus,2987,7,Pico Blvd
130,749,PICO EB & CURSON NS,-118.35991899999999,34.049737,Big Blue Bus,2987,7,Pico Blvd
131,750,PICO EB & HAUSER NS,-118.35708100000001,34.048718,Big Blue Bus,2987,7,Pico Blvd
132,752,PICO EB & COCHRAN NS,-118.35278100000001,34.048201,Big Blue Bus,2987,7,Pico Blvd
133,753,PICO EB & REDONDO NS,-118.34951799999999,34.047961,Big Blue Bus,2987,7,Pico Blvd
134,755,PICO EB & LA BREA FS,-118.344357,34.047865,Big Blue Bus,2987,7,Pico Blvd
135,756,PICO EB & SAN VICENTE NS,-118.339817,34.048367999999996,Big Blue Bus,2987,7,Pico Blvd
136,757,PICO EB & 10TH FS,-118.48071200000001,34.013405,Big Blue Bus,2987,7,Pico Blvd
137,758,PICO EB & EUCLID NS,-118.477749,34.015002,Big Blue Bus,2987,7,Pico Blvd
138,761,PICO EB & SAWTELLE FS,-118.4383,34.035333,Big Blue Bus,2987,7,Pico Blvd
139,762,PICO EB & SEPULVEDA NS (Sepulveda Station),-118.435258,34.036867,Big Blue Bus,2987,7,Pico Blvd
140,764,PICO EB & VETERAN NS,-118.43144299999999,34.038688,Big Blue Bus,2987,7,Pico Blvd
141,804,PICO EB & OVERLAND FS,-118.42450900000001,34.041881,Big Blue Bus,2987,7,Pico Blvd
142,806,PICO EB & PROSSER NS,-118.42112900000001,34.043934,Big Blue Bus,2987,7,Pico Blvd
143,807,PICO EB & PATRICIA FS,-118.418829,34.04526,Big Blue Bus,2987,7,Pico Blvd
144,809,PICO EB & KERWOOD NS,-118.41541699999999,34.047222999999995,Big Blue Bus,2987,7,Pico Blvd
145,1017,ROBERTSON NB & CASHIO NS,-118.384115,34.051842,Big Blue Bus,2987,7,Pico Blvd
146,1061,BEVERLY DR SB & CASHIO FS,-118.395443,34.052244,Big Blue Bus,2987,7,Pico Blvd
147,1089,MONTE MAR EB & BEVERLY DR FS,-118.39499199999999,34.049381,Big Blue Bus,2987,7,Pico Blvd
148,1090,BAGLEY EB & MONTE MAR FS,-118.390768,34.048749,Big Blue Bus,2987,7,Pico Blvd
149,1092,AIRDROME EB & LIVONIA NS,-118.38664299999999,34.048976,Big Blue Bus,2987,7,Pico Blvd
150,1126,4TH SB & CIVIC CENTER MB,-118.48878799999999,34.010940000000005,Big Blue Bus,2987,7,Pico Blvd
151,1301,WESTERN NB & WILSHIRE FS (Wilshire/Western Station),-118.30901399999999,34.062182,Big Blue Bus,2987,7,Pico Blvd
152,1310,CRENSHAW NB & PICO FS,-118.326428,34.048202,Big Blue Bus,2987,7,Pico Blvd
153,1311,CRENSHAW NB & OLYMPIC NS,-118.323003,34.054520000000004,Big Blue Bus,2987,7,Pico Blvd
154,1312,WILSHIRE EB & CRENSHAW FS,-118.318891,34.061688000000004,Big Blue Bus,2987,7,Pico Blvd
155,1330,PICO EB & GATEWAY NS,-118.442507,34.033252000000005,Big Blue Bus,2987,7,Pico Blvd
156,1344,7TH SB & OLYMPIC BLVD NS,-118.48768500000001,34.014691,Big Blue Bus,2987,7,Pico Blvd
157,1581,PICO EB & 17TH NS,-118.472835,34.01764,Big Blue Bus,2987,7,Pico Blvd
158,5,SANTA MONICA EB & 6TH NS,-118.49333200000001,34.017885,Big Blue Bus,2987,7,Pico Blvd
159,63,RIMPAU TERMINAL,-118.33791799999999,34.048083,Big Blue Bus,2987,7,Pico Blvd
160,65,PICO WB & ROBERTSON FS,-118.384074,34.054893,Big Blue Bus,2987,7,Pico Blvd
161,66,PICO WB & ELM NS,-118.39488999999999,34.055313,Big Blue Bus,2987,7,Pico Blvd
162,72,PICO WB & LINCOLN FS,-118.484154,34.011762,Big Blue Bus,2987,7,Pico Blvd
163,75,PICO WB & WESTWOOD NS,-118.428423,34.040176,Big Blue Bus,2987,7,Pico Blvd
164,76,PICO WB & BUNDY NS,-118.450115,34.029475,Big Blue Bus,2987,7,Pico Blvd
165,131,ROBERTSON SB & AIRDROME NS,-118.38543200000001,34.049058,Big Blue Bus,2987,7,Pico Blvd
166,227,SANTA MONICA EB & 4TH FS,-118.494998,34.016521999999995,Big Blue Bus,2987,7,Pico Blvd
167,239,BEVERLY DR NB & PICO NS,-118.39530400000001,34.054812,Big Blue Bus,2987,7,Pico Blvd
168,246,ROBERTSON SB & PICO FS,-118.383845,34.054419,Big Blue Bus,2987,7,Pico Blvd
169,283,4TH NB & PICO FS,-118.48766200000001,34.010065000000004,Big Blue Bus,2987,7,Pico Blvd
170,359,PICO WB & BARRINGTON NS,-118.445679,34.031682,Big Blue Bus,2987,7,Pico Blvd
171,431,4TH NB & BROADWAY NS (Downtown SM Station),-118.493478,34.015048,Big Blue Bus,2987,7,Pico Blvd
172,486,PICO WB & MOTOR FS,-118.41073899999999,34.050028999999995,Big Blue Bus,2987,7,Pico Blvd
173,487,PICO WB & AVE OF THE STARS NS,-118.408482,34.051257,Big Blue Bus,2987,7,Pico Blvd
174,619,PICO WB & VETERAN FS,-118.43165,34.038687,Big Blue Bus,2987,7,Pico Blvd
175,621,PICO WB & SEPULVEDA NS (Sepulveda Station),-118.435084,34.037055,Big Blue Bus,2987,7,Pico Blvd
176,622,PICO WB & SAWTELLE NS,-118.43866000000001,34.035261,Big Blue Bus,2987,7,Pico Blvd
177,767,PICO WB & TREMAINE NS,-118.340767,34.048367999999996,Big Blue Bus,2987,7,Pico Blvd
178,768,PICO WB & LA BREA NS,-118.344466,34.047964,Big Blue Bus,2987,7,Pico Blvd
179,769,PICO WB & REDONDO NS,-118.349104,34.048041999999995,Big Blue Bus,2987,7,Pico Blvd
180,770,PICO WB & COCHRAN NS,-118.35248700000001,34.048318,Big Blue Bus,2987,7,Pico Blvd
181,772,PICO WB & HAUSER NS,-118.35675400000001,34.048718,Big Blue Bus,2987,7,Pico Blvd
182,773,PICO WB & CURSON FS,-118.360378,34.049996,Big Blue Bus,2987,7,Pico Blvd
183,775,PICO WB & FAIRFAX FS,-118.367298,34.051674,Big Blue Bus,2987,7,Pico Blvd
184,777,PICO WB & CRESCENT HEIGHTS NS,-118.37193700000002,34.052557,Big Blue Bus,2987,7,Pico Blvd
185,779,PICO WB & LA CIENEGA NS,-118.37603,34.053359,Big Blue Bus,2987,7,Pico Blvd
186,781,PICO WB & LA PEER NS,-118.386749,34.05532,Big Blue Bus,2987,7,Pico Blvd
187,782,ROBERTSON SB & CASHIO NS,-118.38418100000001,34.052298,Big Blue Bus,2987,7,Pico Blvd
188,783,PICO WB & DOHENY NS,-118.38981499999998,34.055318,Big Blue Bus,2987,7,Pico Blvd
189,811,PICO WB & BEVERWIL NS,-118.39901499999999,34.055032000000004,Big Blue Bus,2987,7,Pico Blvd
190,812,PICO WB & ROXBURY NS,-118.402069,34.054063,Big Blue Bus,2987,7,Pico Blvd
191,813,PICO WB & CENTURY PARK EAST FS,-118.40638899999999,34.052458,Big Blue Bus,2987,7,Pico Blvd
192,815,PICO WB & KERWOOD NS,-118.415264,34.047429,Big Blue Bus,2987,7,Pico Blvd
193,817,PICO WB & PATRICIA NS,-118.41893799999998,34.045305,Big Blue Bus,2987,7,Pico Blvd
194,818,PICO WB & PROSSER NS,-118.42106399999999,34.044077,Big Blue Bus,2987,7,Pico Blvd
195,820,PICO WB & OVERLAND NS,-118.42471599999999,34.04197,Big Blue Bus,2987,7,Pico Blvd
196,821,PICO WB & CENTINELA NS,-118.452818,34.028165,Big Blue Bus,2987,7,Pico Blvd
197,822,PICO WB & 33RD (URBAN AVE) NS,-118.45536799999999,34.026918,Big Blue Bus,2987,7,Pico Blvd
198,823,PICO WB & DORCHESTER (30TH) NS,-118.458344,34.025428000000005,Big Blue Bus,2987,7,Pico Blvd
199,825,PICO WB & 26TH NS,-118.462484,34.023247999999995,Big Blue Bus,2987,7,Pico Blvd
200,826,PICO WB & CLOVERFIELD NS,-118.465121,34.021865999999996,Big Blue Bus,2987,7,Pico Blvd
201,827,PICO WB & 21ST NS,-118.468096,34.020251,Big Blue Bus,2987,7,Pico Blvd
202,828,PICO WB & 20TH NS,-118.469327,34.019605,Big Blue Bus,2987,7,Pico Blvd
203,829,PICO WB & 18TH NS,-118.471158,34.018627,Big Blue Bus,2987,7,Pico Blvd
204,830,PICO WB & 17TH FS,-118.473129,34.017568,Big Blue Bus,2987,7,Pico Blvd
205,831,PICO WB & 14TH NS,-118.475995,34.016052,Big Blue Bus,2987,7,Pico Blvd
206,832,PICO WB & 12TH NS,-118.478435,34.01475,Big Blue Bus,2987,7,Pico Blvd
207,833,PICO WB & 10TH NS,-118.480701,34.013529999999996,Big Blue Bus,2987,7,Pico Blvd
208,1058,BAGLEY WB & MONTE MAR NS,-118.390942,34.048749,Big Blue Bus,2987,7,Pico Blvd
209,1059,MONTE MAR WB & BEVERLY DR NS,-118.395199,34.049479,Big Blue Bus,2987,7,Pico Blvd
210,1060,BEVERLY DR NB & CASHIO NS,-118.395312,34.052334,Big Blue Bus,2987,7,Pico Blvd
211,1139,PICO WB & SHERBOURNE NS,-118.37948999999999,34.054019,Big Blue Bus,2987,7,Pico Blvd
212,1167,AIRDROME WB & CREST NS,-118.387429,34.049208,Big Blue Bus,2987,7,Pico Blvd
213,1278,PICO WB & STEWART FS,-118.460752,34.024181,Big Blue Bus,2987,7,Pico Blvd
214,1302,WILSHIRE WB & WESTERN FS (Wilshire/Western Sta),-118.30933,34.061716,Big Blue Bus,2987,7,Pico Blvd
215,1313,CRENSHAW SB & WILSHIRE FS,-118.319295,34.061563,Big Blue Bus,2987,7,Pico Blvd
216,1314,CRENSHAW SB & OLYMPIC FS,-118.32313400000001,34.054511,Big Blue Bus,2987,7,Pico Blvd
217,1315,PICO WB & CRENSHAW FS,-118.326973,34.047889,Big Blue Bus,2987,7,Pico Blvd
218,1344,7TH SB & OLYMPIC BLVD NS,-118.48768500000001,34.014691,Big Blue Bus,2987,7,Pico Blvd
219,1596,OXFORD SB & WILSHIRE NS,-118.30792199999999,34.061994,Big Blue Bus,2987,7,Pico Blvd
220,1615,PICO WB & EXPOSITION FS,-118.44238,34.033487,Big Blue Bus,2987,7,Pico Blvd
221,389,WESTWOOD NB & SANTA MONICA FS,-118.43751999999999,34.050456,Big Blue Bus,2991,R12,Venice/Westwood Sta/UCLA Rapid
222,391,WESTWOOD NB & OLYMPIC FS,-118.43188899999998,34.044154,Big Blue Bus,2991,R12,Venice/Westwood Sta/UCLA Rapid
223,398,WESTWOOD NB & WILSHIRE NS,-118.443821,34.058733000000004,Big Blue Bus,2991,R12,Venice/Westwood Sta/UCLA Rapid
224,402,WESTWOOD NB & WEYBURN NS,-118.44525800000001,34.062525,Big Blue Bus,2991,R12,Venice/Westwood Sta/UCLA Rapid
225,881,WESTWOOD NB & NATIONAL FS,-118.42108700000001,34.030888,Big Blue Bus,2991,R12,Venice/Westwood Sta/UCLA Rapid
226,884,WESTWOOD NB & EXPOSITION NS (Westwood Sta),-118.425427,34.036395,Big Blue Bus,2991,R12,Venice/Westwood Sta/UCLA Rapid
227,1125,NATIONAL PLACE WB & OVERLAND FS,-118.41646100000001,34.030848,Big Blue Bus,2991,R12,Venice/Westwood Sta/UCLA Rapid
228,1134,OVERLAND NB & PALMS FS,-118.41190300000001,34.025162,Big Blue Bus,2991,R12,Venice/Westwood Sta/UCLA Rapid
229,1149,WESTWOOD PLAZA NB & J STEIN EYE FS,-118.44523000000001,34.065102,Big Blue Bus,2991,R12,Venice/Westwood Sta/UCLA Rapid
230,1184,WESTWOOD PLAZA NB & STRATHMORE FS (Gateway Plaza),-118.44481299999998,34.069451,Big Blue Bus,2991,R12,Venice/Westwood Sta/UCLA Rapid
231,1307,WESTWOOD NB & PICO FS,-118.42871799999999,34.040489,Big Blue Bus,2991,R12,Venice/Westwood Sta/UCLA Rapid
232,1409,OVERLAND NB & VENICE FS,-118.40728,34.019171,Big Blue Bus,2991,R12,Venice/Westwood Sta/UCLA Rapid
233,1536,OVERLAND NB & CHARNOCK NS,-118.409848,34.022496999999994,Big Blue Bus,2991,R12,Venice/Westwood Sta/UCLA Rapid
234,1537,OVERLAND NB & ROSE NS,-118.413215,34.026887,Big Blue Bus,2991,R12,Venice/Westwood Sta/UCLA Rapid
235,236,WESTWOOD SB & PICO FS,-118.42813799999999,34.039631,Big Blue Bus,2991,R12,Venice/Westwood Sta/UCLA Rapid
236,303,WESTWOOD SB & WEYBURN NS,-118.445498,34.06265,Big Blue Bus,2991,R12,Venice/Westwood Sta/UCLA Rapid
237,304,WESTWOOD SB & LINDBROOK NS,-118.44483799999999,34.059653000000004,Big Blue Bus,2991,R12,Venice/Westwood Sta/UCLA Rapid
238,309,WESTWOOD SB & SANTA MONICA NS,-118.437552,34.050321000000004,Big Blue Bus,2991,R12,Venice/Westwood Sta/UCLA Rapid
239,689,WESTWOOD SB & OLYMPIC FS,-118.431692,34.043796,Big Blue Bus,2991,R12,Venice/Westwood Sta/UCLA Rapid
240,837,WESTWOOD SB & EXPOSITION FS (Westwood Station),-118.425252,34.035984,Big Blue Bus,2991,R12,Venice/Westwood Sta/UCLA Rapid
241,840,WESTWOOD SB & NATIONAL NS,-118.421228,34.030906,Big Blue Bus,2991,R12,Venice/Westwood Sta/UCLA Rapid
242,1148,OVERLAND SB & NATIONAL PLACE FS,-118.416045,34.030383,Big Blue Bus,2991,R12,Venice/Westwood Sta/UCLA Rapid
243,1150,WESTWOOD PLAZA SB & UCLA MEDICAL CENTER FS,-118.445471,34.065406,Big Blue Bus,2991,R12,Venice/Westwood Sta/UCLA Rapid
244,1184,WESTWOOD PLAZA NB & STRATHMORE FS (Gateway Plaza),-118.44481299999998,34.069451,Big Blue Bus,2991,R12,Venice/Westwood Sta/UCLA Rapid
245,1409,OVERLAND NB & VENICE FS,-118.40728,34.019171,Big Blue Bus,2991,R12,Venice/Westwood Sta/UCLA Rapid
246,1538,OVERLAND SB & ROSE FS,-118.413127,34.026655,Big Blue Bus,2991,R12,Venice/Westwood Sta/UCLA Rapid
247,1539,OVERLAND SB & PALMS FS,-118.41148700000001,34.024509,Big Blue Bus,2991,R12,Venice/Westwood Sta/UCLA Rapid
248,1541,VENICE EB & OVERLAND FS,-118.406428,34.018886,Big Blue Bus,2991,R12,Venice/Westwood Sta/UCLA Rapid
249,1542,MOTOR SB & WASHINGTON NS,-118.402599,34.018692,Big Blue Bus,2991,R12,Venice/Westwood Sta/UCLA Rapid
250,1543,WASHINGTON WB & OVERLAND NS,-118.405422,34.016936,Big Blue Bus,2991,R12,Venice/Westwood Sta/UCLA Rapid
251,1566,OVERLAND SB & CHARNOCK NS,-118.41001200000001,34.022596,Big Blue Bus,2991,R12,Venice/Westwood Sta/UCLA Rapid
