,stop_id,stop_name,stop_lon,stop_lat,agency,route_id,route_short_name,route_long_name
0,1,WINDWARD AVE/MAIN ST,-118.471525,33.987966,Culver CityBus,1-330,1,Washington Boulevard
1,1500,EXPO CULVER CITY STATION,-118.38731499999999,34.02783,Culver CityBus,1-330,1,Washington Boulevard
2,435,INCE PARKING GARAGE,-118.39171100000002,34.025225,Culver CityBus,1-330,1,Washington Boulevard
3,44,WASHINGTON BLVD/FAIRFAX AVE,-118.36936100000001,34.03472,Culver CityBus,1-330,1,Washington Boulevard
4,45,WASHINGTON BLVD/COMEY AVE,-118.37355,34.03295,Culver CityBus,1-330,1,Washington Boulevard
5,46,WASHINGTON BLVD/LA CIENEGA BLVD,-118.37496200000001,34.032348,Culver CityBus,1-330,1,Washington Boulevard
6,47,WASHINGTON BLVD/MCMANUS AVE,-118.37942199999999,34.031053,Culver CityBus,1-330,1,Washington Boulevard
7,48,WASHINGTON BLVD/CATTARAUGUS AVE,-118.38165900000001,34.030466,Culver CityBus,1-330,1,Washington Boulevard
8,49,WASHINGTON BLVD/HELMS AVE,-118.383772,34.029899,Culver CityBus,1-330,1,Washington Boulevard
9,51,WASHINGTON BLVD/ROBERTSON BLVD,-118.390662,34.025813,Culver CityBus,1-330,1,Washington Boulevard
10,52,CULVER BLVD/MAIN ST,-118.394462,34.02417,Culver CityBus,1-330,1,Washington Boulevard
11,53,WASHINGTON BLVD/HUGHES AVE,-118.397341,34.021842,Culver CityBus,1-330,1,Washington Boulevard
12,54,WASHINGTON BLVD/CLARINGTON AVE,-118.398853,34.020976,Culver CityBus,1-330,1,Washington Boulevard
13,55,WASHINGTON BLVD/JASMINE AVE,-118.400346,34.020062,Culver CityBus,1-330,1,Washington Boulevard
14,56,WASHINGTON BLVD/MOTOR AVE,-118.402477,34.018789,Culver CityBus,1-330,1,Washington Boulevard
15,57,WASHINGTON BLVD/OVERLAND AVE,-118.40533,34.017083,Culver CityBus,1-330,1,Washington Boulevard
16,58,WASHINGTON BLVD/CULVER CENTER,-118.40666399999999,34.015966999999996,Culver CityBus,1-330,1,Washington Boulevard
17,59,WASHINGTON BLVD/ELENDA ST,-118.40950900000001,34.013363,Culver CityBus,1-330,1,Washington Boulevard
18,60,WASHINGTON BLVD/PROSPECT AVE,-118.410261,34.012339000000004,Culver CityBus,1-330,1,Washington Boulevard
19,61,WASHINGTON BLVD/HARTER AVE,-118.41180800000001,34.009543,Culver CityBus,1-330,1,Washington Boulevard
20,62,WASHINGTON BLVD/SEPULVEDA BLVD,-118.41326000000001,34.006963,Culver CityBus,1-330,1,Washington Boulevard
21,63,WASHINGTON BLVD/SAWTELLE BLVD,-118.414855,34.004059000000005,Culver CityBus,1-330,1,Washington Boulevard
22,64,WASHINGTON BLVD/BERRYMAN AVE,-118.416463,34.001121000000005,Culver CityBus,1-330,1,Washington Boulevard
23,65,WASHINGTON BLVD/EAST BLVD,-118.418411,33.999663,Culver CityBus,1-330,1,Washington Boulevard
24,66,WASHINGTON BLVD/INGLEWOOD BLVD,-118.422726,33.99772,Culver CityBus,1-330,1,Washington Boulevard
25,67,WASHINGTON BLVD/GRAND VIEW BLVD,-118.425825,33.99738,Culver CityBus,1-330,1,Washington Boulevard
26,68,WASHINGTON BLVD/CENTINELA AVE,-118.429047,33.99705,Culver CityBus,1-330,1,Washington Boulevard
27,69,WASHINGTON BLVD/WASHINGTON PL,-118.43420900000001,33.996997,Culver CityBus,1-330,1,Washington Boulevard
28,70,WASHINGTON BLVD/MEIER ST,-118.436495,33.99624,Culver CityBus,1-330,1,Washington Boulevard
29,71,WASHINGTON BLVD/BEETHOVEN ST,-118.438143,33.995412,Culver CityBus,1-330,1,Washington Boulevard
30,72,WASHINGTON BLVD/REDWOOD AVE,-118.442619,33.993190000000006,Culver CityBus,1-330,1,Washington Boulevard
31,73,WASHINGTON BLVD/GLENCOE AVE,-118.445775,33.991593,Culver CityBus,1-330,1,Washington Boulevard
32,74,WASHINGTON BLVD/LINCOLN BLVD,-118.448435,33.990269,Culver CityBus,1-330,1,Washington Boulevard
33,75,WASHINGTON BLVD/ABBOT KINNEY BLVD,-118.452592,33.988081,Culver CityBus,1-330,1,Washington Boulevard
34,76,WASHINGTON BLVD/OXFORD AVE,-118.454788,33.986723,Culver CityBus,1-330,1,Washington Boulevard
35,77,WASHINGTON BLVD/WILSON AVE,-118.457357,33.9851,Culver CityBus,1-330,1,Washington Boulevard
36,78,WASHINGTON BLVD/OCEAN AVE,-118.461357,33.982544,Culver CityBus,1-330,1,Washington Boulevard
37,79,WASHINGTON BLVD/DELL AVE,-118.463439,33.981239,Culver CityBus,1-330,1,Washington Boulevard
38,80,WASHINGTON BLVD/STRONGS DR,-118.465281,33.980104,Culver CityBus,1-330,1,Washington Boulevard
39,83,PACIFIC AVE/S VENICE BLVD,-118.469793,33.984812,Culver CityBus,1-330,1,Washington Boulevard
40,228,SEPULVEDA BLVD/SAWTELLE BLVD,-118.39549699999999,33.994685,Culver CityBus,6-330,6,Sepulveda Boulevard
41,229,SEPULVEDA BLVD/BERRYMAN AVE,-118.395416,33.992512,Culver CityBus,6-330,6,Sepulveda Boulevard
42,261,GREEN LINE AVIATION LAX STATION,-118.37743400000001,33.929593,Culver CityBus,6-330,6,Sepulveda Boulevard
43,268,96TH ST/AIRPORT BLVD,-118.387129,33.949301,Culver CityBus,6-330,6,Sepulveda Boulevard
44,269,LAX CITY BUS CENTER,-118.39263100000001,33.949983,Culver CityBus,6-330,6,Sepulveda Boulevard
45,304,UCLA GATEWAY PLAZA,-118.44486200000001,34.068294,Culver CityBus,6-330,6,Sepulveda Boulevard
46,305,WESTWOOD MEDICAL PLAZA,-118.44548300000001,34.065521999999994,Culver CityBus,6-330,6,Sepulveda Boulevard
47,306,WESTWOOD BLVD/WEYBURN AVE,-118.44551399999999,34.062715000000004,Culver CityBus,6-330,6,Sepulveda Boulevard
48,307,WESTWOOD BLVD/LINDBROOK DR,-118.444907,34.059729,Culver CityBus,6-330,6,Sepulveda Boulevard
49,308,WESTWOOD BLVD/WILSHIRE BLVD,-118.444232,34.058935999999996,Culver CityBus,6-330,6,Sepulveda Boulevard
50,309,WILSHIRE BLVD/VETERAN AVE,-118.44755500000001,34.057974,Culver CityBus,6-330,6,Sepulveda Boulevard
51,310,SEPULVEDA BLVD/SALVATION ARMY,-118.448756,34.052663,Culver CityBus,6-330,6,Sepulveda Boulevard
52,311,SEPULVEDA BLVD/OHIO AVE,-118.44656699999999,34.050103,Culver CityBus,6-330,6,Sepulveda Boulevard
53,312,SEPULVEDA BLVD/SANTA MONICA BLVD,-118.444041,34.047156,Culver CityBus,6-330,6,Sepulveda Boulevard
54,313,SEPULVEDA BLVD/LA GRANGE AVE,-118.440331,34.042854,Culver CityBus,6-330,6,Sepulveda Boulevard
55,314,SEPULVEDA BLVD/PICO BLVD (EXPO),-118.435006,34.036626,Culver CityBus,6-330,6,Sepulveda Boulevard
56,315,SEPULVEDA BLVD/RICHLAND AVE,-118.432496,34.032819,Culver CityBus,6-330,6,Sepulveda Boulevard
57,316,SEPULVEDA BLVD/SARDIS AVE,-118.43016200000001,34.029952,Culver CityBus,6-330,6,Sepulveda Boulevard
58,317,SEPULVEDA BLVD/NATIONAL BLVD,-118.428495,34.026990000000005,Culver CityBus,6-330,6,Sepulveda Boulevard
59,318,SEPULVEDA BLVD/SEPULVEDA CT,-118.42611399999998,34.023973,Culver CityBus,6-330,6,Sepulveda Boulevard
60,319,SEPULVEDA BLVD/PALMS BLVD,-118.422521,34.019426,Culver CityBus,6-330,6,Sepulveda Boulevard
61,320,SEPULVEDA BLVD/CHARNOCK RD,-118.41996999999999,34.016186,Culver CityBus,6-330,6,Sepulveda Boulevard
62,321,SEPULVEDA BLVD/VENICE BLVD,-118.416852,34.012273,Culver CityBus,6-330,6,Sepulveda Boulevard
63,322,SEPULVEDA BLVD/WASHINGTON PL,-118.41387900000001,34.008511,Culver CityBus,6-330,6,Sepulveda Boulevard
64,323,SEPULVEDA BLVD/WASHINGTON BLVD,-118.412636,34.006383,Culver CityBus,6-330,6,Sepulveda Boulevard
65,324,SEPULVEDA BLVD/CULVER BLVD,-118.410449,34.004864000000005,Culver CityBus,6-330,6,Sepulveda Boulevard
66,325,SEPULVEDA BLVD/BRADDOCK DR,-118.40633000000001,34.002491,Culver CityBus,6-330,6,Sepulveda Boulevard
67,326,SEPULVEDA BLVD/LUCERNE,-118.40268700000001,34.000440999999995,Culver CityBus,6-330,6,Sepulveda Boulevard
68,327,SEPULVEDA BLVD/STUDIO VILLAGE WEST,-118.39984299999999,33.998807,Culver CityBus,6-330,6,Sepulveda Boulevard
69,328,SEPULVEDA BLVD/JANISANN AVE,-118.396946,33.996796999999994,Culver CityBus,6-330,6,Sepulveda Boulevard
70,329,SEPULVEDA BLVD/CENTINELA AVE,-118.39484099999999,33.980647,Culver CityBus,6-330,6,Sepulveda Boulevard
71,330,CENTER DR/PARK TERRACE DR,-118.39275500000001,33.977878999999994,Culver CityBus,6-330,6,Sepulveda Boulevard
72,331,HOWARD HUGHES PKWY/PARK TERRACE DR,-118.39180800000001,33.975056,Culver CityBus,6-330,6,Sepulveda Boulevard
73,332,SEPULVEDA BLVD/77TH ST,-118.39516100000002,33.971361,Culver CityBus,6-330,6,Sepulveda Boulevard
74,333,SEPULVEDA BLVD/80TH ST,-118.396202,33.96673,Culver CityBus,6-330,6,Sepulveda Boulevard
75,334,SEPULVEDA BLVD/83RD ST,-118.396323,33.963297999999995,Culver CityBus,6-330,6,Sepulveda Boulevard
76,335,SEPULVEDA BLVD/MANCHESTER BLVD,-118.396399,33.959386,Culver CityBus,6-330,6,Sepulveda Boulevard
77,336,SEPULVEDA BLVD/LA TIJERA BLVD,-118.396398,33.956936999999996,Culver CityBus,6-330,6,Sepulveda Boulevard
78,337,WESTCHESTER PKWY/SEPULVEDA BLVD,-118.395978,33.954515,Culver CityBus,6-330,6,Sepulveda Boulevard
79,338,WESTCHESTER PKWY/JENNY AVE,-118.389408,33.952521999999995,Culver CityBus,6-330,6,Sepulveda Boulevard
80,340,96TH ST/AIRPORT BLVD,-118.38627199999999,33.949335,Culver CityBus,6-330,6,Sepulveda Boulevard
81,341,CENTURY BLVD/AIRPORT BLVD,-118.38563899999998,33.945357,Culver CityBus,6-330,6,Sepulveda Boulevard
82,342,CENTURY BLVD/INTERNATIONAL RD,-118.381813,33.945321,Culver CityBus,6-330,6,Sepulveda Boulevard
83,343,CENTURY BLVD/AVIATION BLVD,-118.37872,33.945349,Culver CityBus,6-330,6,Sepulveda Boulevard
84,344,AVIATION BLVD/104TH ST,-118.37861799999999,33.942153999999995,Culver CityBus,6-330,6,Sepulveda Boulevard
85,345,AVIATION BLVD/111TH ST,-118.378593,33.934703000000006,Culver CityBus,6-330,6,Sepulveda Boulevard
86,9307,WESTWOOD BLVD/KINROSS AVE,-118.445553,34.060981,Culver CityBus,6-330,6,Sepulveda Boulevard
87,9309,KINROSS AVE/VETERAN AVE,-118.447925,34.059517,Culver CityBus,6-330,6,Sepulveda Boulevard
88,950,CULVER CITY TRANSIT CENTER,-118.39463,33.988178000000005,Culver CityBus,6-330,6,Sepulveda Boulevard
