,stop_id,stop_name,stop_lon,stop_lat,agency,route_id,route_short_name,route_long_name
0,00023,Amar Rd and Lark Ellen Ave E,-117.919315,34.035002,Foothill Transit,486-150,486,Cal Poly  - El Monte Station
1,00025,Amar Rd and Lemon Ave E,-117.874485,34.03533,Foothill Transit,486-150,486,Cal Poly  - El Monte Station
2,00036,Amar Rd and Sunkist Ave E,-117.970413,34.050585,Foothill Transit,486-150,486,Cal Poly  - El Monte Station
3,00553,Amar Rd and Amber Valley Dr E,-117.888884,34.030068,Foothill Transit,486-150,486,Cal Poly  - El Monte Station
4,00555,Amar Rd and Azusa Ave E,-117.91332299999999,34.030536,Foothill Transit,486-150,486,Cal Poly  - El Monte Station
5,00560,Amar Rd and Braes River Dr E,-117.879042,34.034661,Foothill Transit,486-150,486,Cal Poly  - El Monte Station
6,00565,Amar Rd and California Ave E,-117.958629,34.041878000000004,Foothill Transit,486-150,486,Cal Poly  - El Monte Station
7,00566,Amar Rd and Countryside Dr W,-117.86932900000001,34.036478,Foothill Transit,486-150,486,Cal Poly  - El Monte Station
8,00567,Amar Rd and Creekside Dr E,-117.885263,34.033004999999996,Foothill Transit,486-150,486,Cal Poly  - El Monte Station
9,00569,Amar Rd and Del Valle Ave E,-117.943554,34.036607000000004,Foothill Transit,486-150,486,Cal Poly  - El Monte Station
10,00571,Amar Rd and Echelon Ave E,-117.934276,34.036075,Foothill Transit,486-150,486,Cal Poly  - El Monte Station
11,00577,Amar Rd and Greycliff Ave E,-117.937445,34.0362,Foothill Transit,486-150,486,Cal Poly  - El Monte Station
12,00579,Amar Rd and Hacienda Blvd E,-117.949551,34.037005,Foothill Transit,486-150,486,Cal Poly  - El Monte Station
13,00581,Amar Rd and Heidleburg Ave E,-117.85493600000001,34.039646000000005,Foothill Transit,486-150,486,Cal Poly  - El Monte Station
14,00583,Amar Rd and Indian Summer Ave E,-117.929926,34.035855,Foothill Transit,486-150,486,Cal Poly  - El Monte Station
15,00587,Amar Rd and Meadow Pass Dr  E,-117.859319,34.037918,Foothill Transit,486-150,486,Cal Poly  - El Monte Station
16,00591,Amar Rd and Nogales Ave E,-117.89513799999999,34.027597,Foothill Transit,486-150,486,Cal Poly  - El Monte Station
17,00593,Amar Rd and Orange Ave E,-117.967717,34.04855,Foothill Transit,486-150,486,Cal Poly  - El Monte Station
18,00595,Amar Rd and Puente Ave E,-117.978365,34.054548,Foothill Transit,486-150,486,Cal Poly  - El Monte Station
19,00598,Amar Rd and Shadow Oak Dr E,-117.902602,34.026235,Foothill Transit,486-150,486,Cal Poly  - El Monte Station
20,00601,Amar Rd and Sunset Ave E,-117.96284299999999,34.044982,Foothill Transit,486-150,486,Cal Poly  - El Monte Station
21,00603,Amar Rd and Temple Ave E,-117.910298,34.029212,Foothill Transit,486-150,486,Cal Poly  - El Monte Station
22,00605,Amar Rd and Tonopah Ave E,-117.965364,34.046828999999995,Foothill Transit,486-150,486,Cal Poly  - El Monte Station
23,00607,Amar Rd and Unruh Ave E,-117.953934,34.038422,Foothill Transit,486-150,486,Cal Poly  - El Monte Station
24,00609,Amar Rd and Valinda Ave E,-117.92591999999999,34.035595,Foothill Transit,486-150,486,Cal Poly  - El Monte Station
25,00611,Amar Rd and Vineland Ave E,-117.983227,34.057829999999996,Foothill Transit,486-150,486,Cal Poly  - El Monte Station
26,00614,Amar Rd and Westport St E,-117.90633999999999,34.027115,Foothill Transit,486-150,486,Cal Poly  - El Monte Station
27,00616,Amar Rd and Willow Ave E,-117.972849,34.052338,Foothill Transit,486-150,486,Cal Poly  - El Monte Station
28,00802,Baldwin Park Blvd and Bess E,-117.98590700000001,34.063474,Foothill Transit,486-150,486,Cal Poly  - El Monte Station
29,01172,El Monte Station E,-118.0442,34.072156,Foothill Transit,486-150,486,Cal Poly  - El Monte Station
30,01467,Garvey Ave and Durfee Ave E,-118.011997,34.063534999999995,Foothill Transit,486-150,486,Cal Poly  - El Monte Station
31,01470,Garvey Ave and Lexington E,-118.039524,34.062749,Foothill Transit,486-150,486,Cal Poly  - El Monte Station
32,01472,Garvey Ave and Meeker E,-118.02615800000001,34.062752,Foothill Transit,486-150,486,Cal Poly  - El Monte Station
33,01474,Garvey Ave and Mountain View E,-118.022213,34.062742,Foothill Transit,486-150,486,Cal Poly  - El Monte Station
34,01476,Garvey Ave and Peck E,-118.030847,34.062762,Foothill Transit,486-150,486,Cal Poly  - El Monte Station
35,01478,Garvey Ave and Santa Anita E,-118.04156699999999,34.062668,Foothill Transit,486-150,486,Cal Poly  - El Monte Station
36,01479,Garvey Ave and Tyler E,-118.035449,34.062761,Foothill Transit,486-150,486,Cal Poly  - El Monte Station
37,01481,Garvey Ave and Valley E,-118.018693,34.06277,Foothill Transit,486-150,486,Cal Poly  - El Monte Station
38,02322,S Campus Dr and Temple Ave W,-117.816217,34.050515999999995,Foothill Transit,486-150,486,Cal Poly  - El Monte Station
39,02420,Santa Anita Ave and Mildred E,-118.04257199999999,34.066774,Foothill Transit,486-150,486,Cal Poly  - El Monte Station
40,02536,Temple Ave and Bonita Ave,-117.83976799999999,34.046939,Foothill Transit,486-150,486,Cal Poly  - El Monte Station
41,02544,Temple Ave and Grand E,-117.846876,34.043079999999996,Foothill Transit,486-150,486,Cal Poly  - El Monte Station
42,02551,Temple Ave and Mt Sac Way,-117.84453700000002,34.044049,Foothill Transit,486-150,486,Cal Poly  - El Monte Station
43,02564,Temple Ave and University Dr,-117.820307,34.050394,Foothill Transit,486-150,486,Cal Poly  - El Monte Station
44,00024,Amar Rd and Lark Ellen Ave W,-117.91996599999999,34.035343,Foothill Transit,486-150,486,Cal Poly  - El Monte Station
45,00026,Amar Rd and Lemon Ave W,-117.874693,34.035515000000004,Foothill Transit,486-150,486,Cal Poly  - El Monte Station
46,00027,Amar Rd and Nogales St W,-117.89608999999999,34.027635,Foothill Transit,486-150,486,Cal Poly  - El Monte Station
47,00554,Amar Rd and Amber Valley Dr W,-117.889478,34.029862,Foothill Transit,486-150,486,Cal Poly  - El Monte Station
48,00556,Amar Rd and Azusa Ave W,-117.91518300000001,34.031826,Foothill Transit,486-150,486,Cal Poly  - El Monte Station
49,00561,Amar Rd and Braes River Dr W,-117.87933899999999,34.034799,Foothill Transit,486-150,486,Cal Poly  - El Monte Station
50,00563,Amar Rd and Countryside Dr W,-117.869395,34.036673,Foothill Transit,486-150,486,Cal Poly  - El Monte Station
51,00568,Amar Rd and Creekside Dr W,-117.885527,34.033097999999995,Foothill Transit,486-150,486,Cal Poly  - El Monte Station
52,00570,Amar Rd and Del Valle Ave W,-117.94358000000001,34.036843,Foothill Transit,486-150,486,Cal Poly  - El Monte Station
53,00572,Amar Rd and Echelon Ave W,-117.9349,34.036291999999996,Foothill Transit,486-150,486,Cal Poly  - El Monte Station
54,00576,Amar Rd and Mt. SAC Way W,-117.84531399999999,34.043869,Foothill Transit,486-150,486,Cal Poly  - El Monte Station
55,00578,Amar Rd and Greycliff Ave W,-117.938349,34.036491999999996,Foothill Transit,486-150,486,Cal Poly  - El Monte Station
56,00580,Amar Rd and Hacienda Blvd W,-117.95045900000001,34.037310999999995,Foothill Transit,486-150,486,Cal Poly  - El Monte Station
57,00582,Amar Rd and Heidleburg Ave W,-117.85508700000001,34.039817,Foothill Transit,486-150,486,Cal Poly  - El Monte Station
58,00584,Amar Rd and Indian Summer Ave W,-117.929929,34.036072,Foothill Transit,486-150,486,Cal Poly  - El Monte Station
59,00594,Amar Rd and Orange Ave W,-117.96808,34.049116,Foothill Transit,486-150,486,Cal Poly  - El Monte Station
60,00596,Amar Rd and Puente Ave W,-117.977764,34.054438,Foothill Transit,486-150,486,Cal Poly  - El Monte Station
61,00599,Amar Rd and Shadow Oak Dr W,-117.90343600000001,34.026483,Foothill Transit,486-150,486,Cal Poly  - El Monte Station
62,00600,Amar Rd and Sunkist Ave W,-117.96996100000001,34.050499,Foothill Transit,486-150,486,Cal Poly  - El Monte Station
63,00602,Amar Rd and Sunset Ave W,-117.962681,34.045152,Foothill Transit,486-150,486,Cal Poly  - El Monte Station
64,00604,Amar Rd and Temple Ave W,-117.910347,34.029546999999994,Foothill Transit,486-150,486,Cal Poly  - El Monte Station
65,00606,Amar Rd and Tonopah Ave W,-117.96561499999999,34.047309999999996,Foothill Transit,486-150,486,Cal Poly  - El Monte Station
66,00608,Amar Rd and Unruh Ave W,-117.95393,34.038705,Foothill Transit,486-150,486,Cal Poly  - El Monte Station
67,00610,Amar Rd and Valinda Ave W,-117.92585700000001,34.035806,Foothill Transit,486-150,486,Cal Poly  - El Monte Station
68,00612,Amar Rd and Vineland Ave W,-117.98276200000001,34.057786,Foothill Transit,486-150,486,Cal Poly  - El Monte Station
69,00617,Amar Rd and Willow Ave W,-117.97237700000001,34.052274,Foothill Transit,486-150,486,Cal Poly  - El Monte Station
70,00803,Baldwin Park Blvd and Bess W,-117.985739,34.063419,Foothill Transit,486-150,486,Cal Poly  - El Monte Station
71,01171,El Monte Station W,-118.044762,34.072208,Foothill Transit,486-150,486,Cal Poly  - El Monte Station
72,01468,Garvey Ave and Durfee Ave W,-118.01180900000001,34.0637,Foothill Transit,486-150,486,Cal Poly  - El Monte Station
73,01471,Garvey Ave and Lexington W,-118.039695,34.062938,Foothill Transit,486-150,486,Cal Poly  - El Monte Station
74,01473,Garvey Ave and Meeker W,-118.02640600000001,34.062892,Foothill Transit,486-150,486,Cal Poly  - El Monte Station
75,01475,Garvey Ave and Mountain View W,-118.021381,34.062943,Foothill Transit,486-150,486,Cal Poly  - El Monte Station
76,01477,Garvey Ave and Peck W,-118.0302,34.062948999999996,Foothill Transit,486-150,486,Cal Poly  - El Monte Station
77,01480,Garvey Ave and Tyler W,-118.035397,34.062940000000005,Foothill Transit,486-150,486,Cal Poly  - El Monte Station
78,01482,Garvey Ave and Valley W,-118.01867299999999,34.062963,Foothill Transit,486-150,486,Cal Poly  - El Monte Station
79,02409,Santa Anita Ave and Garvey W,-118.042429,34.063174,Foothill Transit,486-150,486,Cal Poly  - El Monte Station
80,02423,Santa Anita Ave and Mildred W,-118.04234699999999,34.067344,Foothill Transit,486-150,486,Cal Poly  - El Monte Station
81,02537,Temple Ave and Bonita Ave,-117.84069199999999,34.046751,Foothill Transit,486-150,486,Cal Poly  - El Monte Station
82,02563,Temple Ave and South Campus Dr,-117.81741799999999,34.050499,Foothill Transit,486-150,486,Cal Poly  - El Monte Station
83,02565,Temple Ave and University Dr,-117.82101599999999,34.05062,Foothill Transit,486-150,486,Cal Poly  - El Monte Station
84,02815,Amar and Sunset Bluff,-117.851922,34.041726000000004,Foothill Transit,486-150,486,Cal Poly  - El Monte Station
85,02916,Amar Rd and West Port St W,-117.906811,34.027684,Foothill Transit,486-150,486,Cal Poly  - El Monte Station
86,02974,Amar Rd and Country Hollow Dr W,-117.860045,34.038083,Foothill Transit,486-150,486,Cal Poly  - El Monte Station
87,02975,Amar Rd and California Ave E,-117.95818,34.041839,Foothill Transit,486-150,486,Cal Poly  - El Monte Station
88,00047,Figueroa St and 11 St E (Staples Center),-118.26491899999999,34.043861,Foothill Transit,707-150,Silver Streak,Montclair-Pomona- El Monte- L.A.
89,00549,Aliso St and Los Angeles St E,-118.23969,34.054884,Foothill Transit,707-150,Silver Streak,Montclair-Pomona- El Monte- L.A.
90,00896,Cal State LA E,-118.16810100000001,34.062501,Foothill Transit,707-150,Silver Streak,Montclair-Pomona- El Monte- L.A.
91,01172,El Monte Station E,-118.0442,34.072156,Foothill Transit,707-150,Silver Streak,Montclair-Pomona- El Monte- L.A.
92,02028,Montclair Transit Center,-117.694923,34.094957,Foothill Transit,707-150,Silver Streak,Montclair-Pomona- El Monte- L.A.
93,02093,Olive Ave and 1st St E,-118.248084,34.054455,Foothill Transit,707-150,Silver Streak,Montclair-Pomona- El Monte- L.A.
94,02094,Olive Ave and 5th St E,-118.252955,34.049259,Foothill Transit,707-150,Silver Streak,Montclair-Pomona- El Monte- L.A.
95,02095,Olive Ave and 8th St E,-118.25666299999999,34.045284,Foothill Transit,707-150,Silver Streak,Montclair-Pomona- El Monte- L.A.
96,02106,Olive Ave and Olympic E,-118.259377,34.042398,Foothill Transit,707-150,Silver Streak,Montclair-Pomona- El Monte- L.A.
97,02158,Pomona Transit Center,-117.751493,34.059469,Foothill Transit,707-150,Silver Streak,Montclair-Pomona- El Monte- L.A.
98,02474,Spring St and 1st St E,-118.24381000000001,34.053568,Foothill Transit,707-150,Silver Streak,Montclair-Pomona- El Monte- L.A.
99,02591,Union Station (Busway Entrance) E,-118.23671999999999,34.054313,Foothill Transit,707-150,Silver Streak,Montclair-Pomona- El Monte- L.A.
100,02593,USC Medical Center E,-118.210398,34.055392,Foothill Transit,707-150,Silver Streak,Montclair-Pomona- El Monte- L.A.
101,02646,Vincent Ave and Lakes Dr N,-117.926699,34.069306,Foothill Transit,707-150,Silver Streak,Montclair-Pomona- El Monte- L.A.
102,02656,West Covina Pkwy and California Ave E,-117.93051299999999,34.068577000000005,Foothill Transit,707-150,Silver Streak,Montclair-Pomona- El Monte- L.A.
103,02665,West Covina Pkwy and Toluca Ave E,-117.940853,34.070701,Foothill Transit,707-150,Silver Streak,Montclair-Pomona- El Monte- L.A.
104,03048,1st St and Hill St E,-118.246715,34.054326,Foothill Transit,707-150,Silver Streak,Montclair-Pomona- El Monte- L.A.
105,03623,Pico Blvd and Flower St (LA Convention Center),-118.26723100000001,34.040319000000004,Foothill Transit,707-150,Silver Streak,Montclair-Pomona- El Monte- L.A.
106,03624,Olympic Blvd and Flower St,-118.262929,34.044378,Foothill Transit,707-150,Silver Streak,Montclair-Pomona- El Monte- L.A.
107,00501,1st St and Broadway W,-118.245392,34.05362,Foothill Transit,707-150,Silver Streak,Montclair-Pomona- El Monte- L.A.
108,00618,Arcadia St and Los Angeles St W,-118.239047,34.05525,Foothill Transit,707-150,Silver Streak,Montclair-Pomona- El Monte- L.A.
109,00897,Cal State LA W,-118.167874,34.062841999999996,Foothill Transit,707-150,Silver Streak,Montclair-Pomona- El Monte- L.A.
110,01171,El Monte Station W,-118.044762,34.072208,Foothill Transit,707-150,Silver Streak,Montclair-Pomona- El Monte- L.A.
111,01596,Grand Ave and 2nd St W,-118.250127,34.05437,Foothill Transit,707-150,Silver Streak,Montclair-Pomona- El Monte- L.A.
112,01600,Grand Ave and 8th St W,-118.25688500000001,34.047075,Foothill Transit,707-150,Silver Streak,Montclair-Pomona- El Monte- L.A.
113,01602,Grand Ave and 9th St W,-118.25972900000001,34.043991,Foothill Transit,707-150,Silver Streak,Montclair-Pomona- El Monte- L.A.
114,02028,Montclair Transit Center,-117.694923,34.094957,Foothill Transit,707-150,Silver Streak,Montclair-Pomona- El Monte- L.A.
115,02158,Pomona Transit Center,-117.751493,34.059469,Foothill Transit,707-150,Silver Streak,Montclair-Pomona- El Monte- L.A.
116,02475,Spring St and 1st St W,-118.243468,34.054063,Foothill Transit,707-150,Silver Streak,Montclair-Pomona- El Monte- L.A.
117,02594,USC Medical Center W,-118.21054299999999,34.055419,Foothill Transit,707-150,Silver Streak,Montclair-Pomona- El Monte- L.A.
118,02647,Vincent Ave and Plaza Dr S,-117.92707800000001,34.069306,Foothill Transit,707-150,Silver Streak,Montclair-Pomona- El Monte- L.A.
119,02818,Arcadia St and Alameda St (Union Station),-118.237503,34.054457,Foothill Transit,707-150,Silver Streak,Montclair-Pomona- El Monte- L.A.
120,02924,West Covina Pkwy and California Ave W,-117.92966100000001,34.068711,Foothill Transit,707-150,Silver Streak,Montclair-Pomona- El Monte- L.A.
121,02925,West Covina Pkwy and Toluca Ave W,-117.939784,34.07014,Foothill Transit,707-150,Silver Streak,Montclair-Pomona- El Monte- L.A.
122,02994,Flower St and 11 St W,-118.264133,34.04307,Foothill Transit,707-150,Silver Streak,Montclair-Pomona- El Monte- L.A.
123,03051,Grand Ave and 5th St,-118.254139,34.05001,Foothill Transit,707-150,Silver Streak,Montclair-Pomona- El Monte- L.A.
124,03169,1st St and Hill St W,-118.246881,34.05458,Foothill Transit,707-150,Silver Streak,Montclair-Pomona- El Monte- L.A.
125,03622,Flower St and Pico Blvd (LA Convention Center),-118.26697800000001,34.039968,Foothill Transit,707-150,Silver Streak,Montclair-Pomona- El Monte- L.A.
