,stop_id,stop_name,stop_lon,stop_lat,agency,route_id,route_short_name,route_long_name
0,0282,OCEAN & ATLANTIC NW,-118.185303,33.766506,Long Beach Transit,61,61,ATLANTIC / ARTESIA STATION
1,0284,OCEAN & ELM NW,-118.188225,33.766861,Long Beach Transit,61,61,ATLANTIC / ARTESIA STATION
2,0313,Atlantic at 4th St NW,-118.18512700000001,33.771935,Long Beach Transit,61,61,ATLANTIC / ARTESIA STATION
3,0337,Atlantic at Broadway SW,-118.18512,33.769073,Long Beach Transit,61,61,ATLANTIC / ARTESIA STATION
4,0339,Atlantic at 6th St SW,-118.18510400000001,33.773918,Long Beach Transit,61,61,ATLANTIC / ARTESIA STATION
5,0351,ATLANTIC & ANAHEIM SW,-118.185135,33.782257,Long Beach Transit,61,61,ATLANTIC / ARTESIA STATION
6,0352,ATLANTIC & 11TH SW,-118.18511200000002,33.780746,Long Beach Transit,61,61,ATLANTIC / ARTESIA STATION
7,0582,ARTESIA & SUZANA SE,-118.206772,33.874179999999996,Long Beach Transit,61,61,ATLANTIC / ARTESIA STATION
8,0768,ATLANTIC & ARTESIA SW,-118.18623400000001,33.874226,Long Beach Transit,61,61,ATLANTIC / ARTESIA STATION
9,0769,ATLANTIC & JORDAN HS. W,-118.18584399999999,33.871025,Long Beach Transit,61,61,ATLANTIC / ARTESIA STATION
10,0770,ATLANTIC & ADAMS SW,-118.18564599999999,33.869667,Long Beach Transit,61,61,ATLANTIC / ARTESIA STATION
11,0771,ATLANTIC & HARDING SW,-118.185341,33.867129999999996,Long Beach Transit,61,61,ATLANTIC / ARTESIA STATION
12,0772,ATLANTIC & 60TH NW,-118.185097,33.863789000000004,Long Beach Transit,61,61,ATLANTIC / ARTESIA STATION
13,0774,ATLANTIC & 56TH SW,-118.185074,33.857857,Long Beach Transit,61,61,ATLANTIC / ARTESIA STATION
14,0775,ATLANTIC & SOUTH NW,-118.18508899999999,33.860188,Long Beach Transit,61,61,ATLANTIC / ARTESIA STATION
15,0776,ATLANTIC & MARKET NW,-118.185051,33.85461,Long Beach Transit,61,61,ATLANTIC / ARTESIA STATION
16,0777,ATLANTIC & 53RD SW,-118.18503600000001,33.852226,Long Beach Transit,61,61,ATLANTIC / ARTESIA STATION
17,0778,ATLANTIC & 52ND SW,-118.18502,33.850418,Long Beach Transit,61,61,ATLANTIC / ARTESIA STATION
18,0779,ATLANTIC & 51ST SW,-118.185051,33.848499,Long Beach Transit,61,61,ATLANTIC / ARTESIA STATION
19,0780,ATLANTIC & DEL AMO SW,-118.18511200000002,33.844913,Long Beach Transit,61,61,ATLANTIC / ARTESIA STATION
20,0781,ATLANTIC & 46TH SW,-118.18508899999999,33.842438,Long Beach Transit,61,61,ATLANTIC / ARTESIA STATION
21,0782,ATLANTIC & 45TH SW,-118.18512700000001,33.839661,Long Beach Transit,61,61,ATLANTIC / ARTESIA STATION
22,0783,ATLANTIC & SAN ANTONIO SW,-118.185143,33.83625,Long Beach Transit,61,61,ATLANTIC / ARTESIA STATION
23,0784,ATLANTIC & BURLINGHALL SW,-118.18516499999998,33.834095,Long Beach Transit,61,61,ATLANTIC / ARTESIA STATION
24,0785,ATLANTIC & CARSON SW,-118.185204,33.831447999999995,Long Beach Transit,61,61,ATLANTIC / ARTESIA STATION
25,0786,ATLANTIC & ROOSEVELT SW,-118.18518799999998,33.828720000000004,Long Beach Transit,61,61,ATLANTIC / ARTESIA STATION
26,0787,ATLANTIC & BIXBY SW,-118.18512,33.826508000000004,Long Beach Transit,61,61,ATLANTIC / ARTESIA STATION
27,0788,ATLANTIC & 37TH SW,-118.185158,33.823978000000004,Long Beach Transit,61,61,ATLANTIC / ARTESIA STATION
28,0789,ATLANTIC & 36TH SW,-118.185158,33.821964,Long Beach Transit,61,61,ATLANTIC / ARTESIA STATION
29,0790,ATLANTIC & WARDLOW SW,-118.18508899999999,33.818604,Long Beach Transit,61,61,ATLANTIC / ARTESIA STATION
30,0791,ATLANTIC & 31ST NW,-118.18518799999998,33.813671,Long Beach Transit,61,61,ATLANTIC / ARTESIA STATION
31,0792,ATLANTIC & COLUMBIA SW,-118.185181,33.808678,Long Beach Transit,61,61,ATLANTIC / ARTESIA STATION
32,0794,ATLANTIC & WILLOW SW,-118.18512700000001,33.804072999999995,Long Beach Transit,61,61,ATLANTIC / ARTESIA STATION
33,0796,ATLANTIC & BURNETT SW,-118.18506599999999,33.800545,Long Beach Transit,61,61,ATLANTIC / ARTESIA STATION
34,0798,ATLANTIC & HILL SW,-118.18517299999999,33.796841,Long Beach Transit,61,61,ATLANTIC / ARTESIA STATION
35,0800,ATLANTIC & 20TH SW,-118.185135,33.793255,Long Beach Transit,61,61,ATLANTIC / ARTESIA STATION
36,0802,ATLANTIC & PCH SW,-118.18508899999999,33.789604,Long Beach Transit,61,61,ATLANTIC / ARTESIA STATION
37,0803,ATLANTIC & 16TH SW,-118.185135,33.786755,Long Beach Transit,61,61,ATLANTIC / ARTESIA STATION
38,0804,ATLANTIC & NEW YORK SW,-118.18517299999999,33.784599,Long Beach Transit,61,61,ATLANTIC / ARTESIA STATION
39,0805,ATLANTIC & TENTH SW,-118.18516499999998,33.778625,Long Beach Transit,61,61,ATLANTIC / ARTESIA STATION
40,0807,ATLANTIC & EIGHTH SW,-118.185135,33.776278999999995,Long Beach Transit,61,61,ATLANTIC / ARTESIA STATION
41,2401,ARTESIA & ACACIA SE,-118.224251,33.874451,Long Beach Transit,61,61,ATLANTIC / ARTESIA STATION
42,2402,ARTESIA & SANTA FE SE,-118.213943,33.874123,Long Beach Transit,61,61,ATLANTIC / ARTESIA STATION
43,2415,PACIFIC & OCEAN NE,-118.193649,33.767612,Long Beach Transit,61,61,ATLANTIC / ARTESIA STATION
44,2423,OCEAN & LB BLVD NW,-118.18994099999999,33.767025,Long Beach Transit,61,61,ATLANTIC / ARTESIA STATION
45,2424,OCEAN & PINE NE,-118.192276,33.767132000000004,Long Beach Transit,61,61,ATLANTIC / ARTESIA STATION
46,2700,ARTESIA & L.B. BLVD SE,-118.202202,33.874184,Long Beach Transit,61,61,ATLANTIC / ARTESIA STATION
47,2701,ARTESIA & BUTLER SE,-118.196823,33.874199,Long Beach Transit,61,61,ATLANTIC / ARTESIA STATION
48,2791,ATLANTIC & 33RD NW,-118.185135,33.817142,Long Beach Transit,61,61,ATLANTIC / ARTESIA STATION
49,4011,FIRST & SHELTER G S,-118.190575,33.768013,Long Beach Transit,61,61,ATLANTIC / ARTESIA STATION
50,4043,ATLANTIC & 27TH SW,-118.18516499999998,33.805671999999994,Long Beach Transit,61,61,ATLANTIC / ARTESIA STATION
51,4136,ARTESIA STATION SOUTH BAY,-118.222649,33.875628999999996,Long Beach Transit,61,61,ATLANTIC / ARTESIA STATION
52,4141,Artesia Station Layover Area,-118.22299199999999,33.875275,Long Beach Transit,61,61,ATLANTIC / ARTESIA STATION
53,0170,OCEAN & HART PL SE,-118.188499,33.766674,Long Beach Transit,61,61,ATLANTIC / ARTESIA STATION
54,0312,Atlantic at 1st SE,-118.184982,33.76786,Long Beach Transit,61,61,ATLANTIC / ARTESIA STATION
55,0314,Atlantic at 4th St NE,-118.184982,33.771935,Long Beach Transit,61,61,ATLANTIC / ARTESIA STATION
56,0713,ATLANTIC & SIXTH NE,-118.18498999999998,33.774387,Long Beach Transit,61,61,ATLANTIC / ARTESIA STATION
57,0714,ATLANTIC & SEVENTH NE,-118.184998,33.775734,Long Beach Transit,61,61,ATLANTIC / ARTESIA STATION
58,0715,ATLANTIC & EIGHTH NE,-118.185005,33.776798,Long Beach Transit,61,61,ATLANTIC / ARTESIA STATION
59,0717,ATLANTIC & TENTH NE,-118.185005,33.779263,Long Beach Transit,61,61,ATLANTIC / ARTESIA STATION
60,0718,ATLANTIC & 11TH NE,-118.184975,33.781105,Long Beach Transit,61,61,ATLANTIC / ARTESIA STATION
61,0719,ATLANTIC & ANAHEIM NE,-118.18496699999999,33.782761,Long Beach Transit,61,61,ATLANTIC / ARTESIA STATION
62,0720,ATLANTIC & NEW YORK NE,-118.18496699999999,33.784966,Long Beach Transit,61,61,ATLANTIC / ARTESIA STATION
63,0721,ATLANTIC & 16TH NE,-118.18496699999999,33.787125,Long Beach Transit,61,61,ATLANTIC / ARTESIA STATION
64,0722,ATLANTIC & PCH NE,-118.184952,33.789993,Long Beach Transit,61,61,ATLANTIC / ARTESIA STATION
65,0724,ATLANTIC & 20TH NE,-118.184975,33.793732,Long Beach Transit,61,61,ATLANTIC / ARTESIA STATION
66,0726,ATLANTIC & HILL NE,-118.184975,33.797363,Long Beach Transit,61,61,ATLANTIC / ARTESIA STATION
67,0728,ATLANTIC & BURNETT NE,-118.18496699999999,33.800945,Long Beach Transit,61,61,ATLANTIC / ARTESIA STATION
68,0730,ATLANTIC & WILLOW NE,-118.184921,33.804756,Long Beach Transit,61,61,ATLANTIC / ARTESIA STATION
69,0731,ATLANTIC & PATTERSON NE,-118.18491399999999,33.807198,Long Beach Transit,61,61,ATLANTIC / ARTESIA STATION
70,0732,ATLANTIC & COLUMBIA NE,-118.184937,33.809013,Long Beach Transit,61,61,ATLANTIC / ARTESIA STATION
71,0733,ATLANTIC & 31ST NE,-118.184921,33.813553000000006,Long Beach Transit,61,61,ATLANTIC / ARTESIA STATION
72,0734,ATLANTIC & 33RD NE,-118.184929,33.817181,Long Beach Transit,61,61,ATLANTIC / ARTESIA STATION
73,0735,ATLANTIC & WARDLOW NE,-118.18491399999999,33.819,Long Beach Transit,61,61,ATLANTIC / ARTESIA STATION
74,0736,ATLANTIC & 36TH NE,-118.18496699999999,33.822371999999994,Long Beach Transit,61,61,ATLANTIC / ARTESIA STATION
75,0737,ATLANTIC & 37TH NE,-118.184959,33.824509,Long Beach Transit,61,61,ATLANTIC / ARTESIA STATION
76,0738,ATLANTIC & BIXBY SE,-118.184937,33.827393,Long Beach Transit,61,61,ATLANTIC / ARTESIA STATION
77,0739,ATLANTIC & ROOSEVELT NE,-118.18494399999999,33.829369,Long Beach Transit,61,61,ATLANTIC / ARTESIA STATION
78,0740,ATLANTIC & CARSON NE,-118.184929,33.832153000000005,Long Beach Transit,61,61,ATLANTIC / ARTESIA STATION
79,0742,ATLANTIC & SAN ANTONIO NE,-118.184875,33.837723,Long Beach Transit,61,61,ATLANTIC / ARTESIA STATION
80,0743,ATLANTIC & 45TH NE,-118.184875,33.840153,Long Beach Transit,61,61,ATLANTIC / ARTESIA STATION
81,0744,ATLANTIC & 46TH NE,-118.184868,33.842991,Long Beach Transit,61,61,ATLANTIC / ARTESIA STATION
82,0745,ATLANTIC & DEL AMO NE,-118.184845,33.845619,Long Beach Transit,61,61,ATLANTIC / ARTESIA STATION
83,0746,ATLANTIC & 51ST NE,-118.184807,33.848679,Long Beach Transit,61,61,ATLANTIC / ARTESIA STATION
84,0747,ATLANTIC & ATLN PLAZA NE,-118.18478400000001,33.850693,Long Beach Transit,61,61,ATLANTIC / ARTESIA STATION
85,0748,ATLANTIC & 53RD SE,-118.184822,33.852352,Long Beach Transit,61,61,ATLANTIC / ARTESIA STATION
86,0749,ATLANTIC & MARKET NE,-118.18483700000002,33.854469,Long Beach Transit,61,61,ATLANTIC / ARTESIA STATION
87,0751,ATLANTIC & 56TH NE,-118.184891,33.858222999999995,Long Beach Transit,61,61,ATLANTIC / ARTESIA STATION
88,0752,ATLANTIC & SOUTH NE,-118.184868,33.860168,Long Beach Transit,61,61,ATLANTIC / ARTESIA STATION
89,0753,ATLANTIC & 60TH NE,-118.184891,33.863785,Long Beach Transit,61,61,ATLANTIC / ARTESIA STATION
90,0754,ATLANTIC & HARDING NE,-118.18521100000001,33.867424,Long Beach Transit,61,61,ATLANTIC / ARTESIA STATION
91,0755,ATLANTIC & ADAMS NE,-118.18557,33.870132,Long Beach Transit,61,61,ATLANTIC / ARTESIA STATION
92,0756,ATLANTIC & JORDAN HS. E,-118.185745,33.871311,Long Beach Transit,61,61,ATLANTIC / ARTESIA STATION
93,2385,Artesia & Long Beach NE,-118.20253799999999,33.874386,Long Beach Transit,61,61,ATLANTIC / ARTESIA STATION
94,2408,ARTESIA & HARBOR NW,-118.20751200000001,33.874378,Long Beach Transit,61,61,ATLANTIC / ARTESIA STATION
95,2409,ARTESIA & SANTA FE NE,-118.21444699999999,33.874325,Long Beach Transit,61,61,ATLANTIC / ARTESIA STATION
96,2410,ACACIA & ARTESIA NE,-118.22476999999999,33.874802,Long Beach Transit,61,61,ATLANTIC / ARTESIA STATION
97,3003,ATLANTIC & BROADWAY NE,-118.18496699999999,33.769451000000004,Long Beach Transit,61,61,ATLANTIC / ARTESIA STATION
98,3075,ARTESIA BLVD AT LB BIBLE INSTITUTE N,-118.19250500000001,33.874477,Long Beach Transit,61,61,ATLANTIC / ARTESIA STATION
99,4011,FIRST & SHELTER G S,-118.190575,33.768013,Long Beach Transit,61,61,ATLANTIC / ARTESIA STATION
100,4133,ARTESIA & BUTLER NW,-118.19736499999999,33.874424,Long Beach Transit,61,61,ATLANTIC / ARTESIA STATION
101,4134,ARTESIA & ATLANTIC NW,-118.18628700000001,33.874496,Long Beach Transit,61,61,ATLANTIC / ARTESIA STATION
102,4136,ARTESIA STATION SOUTH BAY,-118.222649,33.875628999999996,Long Beach Transit,61,61,ATLANTIC / ARTESIA STATION
103,4141,Artesia Station Layover Area,-118.22299199999999,33.875275,Long Beach Transit,61,61,ATLANTIC / ARTESIA STATION
