,stop_id,stop_name,stop_lon,stop_lat,agency,route_id,route_short_name,route_long_name
0,3547,32nd Ave & California St  ,-122.492553,37.783429,San Francisco Municipal Transportation Agency,14287,1,CALIFORNIA
1,3549,32nd Ave & Clement St  ,-122.492425,37.781802,San Francisco Municipal Transportation Agency,14287,1,CALIFORNIA
2,3550,32nd Ave & Geary Blvd  ,-122.492296,37.779939,San Francisco Municipal Transportation Agency,14287,1,CALIFORNIA
3,3822,California St & 4th Ave  ,-122.46229199999999,37.785353,San Francisco Municipal Transportation Agency,14287,1,CALIFORNIA
4,3824,California St & 6th Ave  ,-122.46464099999999,37.785069,San Francisco Municipal Transportation Agency,14287,1,CALIFORNIA
5,3828,California St & 10th Ave  ,-122.469159,37.784665000000004,San Francisco Municipal Transportation Agency,14287,1,CALIFORNIA
6,3831,California St & 12th Ave  ,-122.470848,37.784586,San Francisco Municipal Transportation Agency,14287,1,CALIFORNIA
7,3833,California St & 16th Ave  ,-122.475229,37.784386,San Francisco Municipal Transportation Agency,14287,1,CALIFORNIA
8,3835,California St & 19th Ave  ,-122.47844599999999,37.784240999999994,San Francisco Municipal Transportation Agency,14287,1,CALIFORNIA
9,3837,California St & 22nd Ave  ,-122.48165900000001,37.784096999999996,San Francisco Municipal Transportation Agency,14287,1,CALIFORNIA
10,3839,California St & 25th Ave  ,-122.48482,37.78395,San Francisco Municipal Transportation Agency,14287,1,CALIFORNIA
11,3841,California St & 28th Ave  ,-122.488074,37.783798,San Francisco Municipal Transportation Agency,14287,1,CALIFORNIA
12,3843,California St & 30th Ave  ,-122.49051299999999,37.783671000000005,San Francisco Municipal Transportation Agency,14287,1,CALIFORNIA
13,3845,California St & Arguello Blvd ,-122.45928799999999,37.785703000000005,San Francisco Municipal Transportation Agency,14287,1,CALIFORNIA
14,3847,California St & Baker St  ,-122.443634,37.787738,San Francisco Municipal Transportation Agency,14287,1,CALIFORNIA
15,3852,California St & Cherry St  ,-122.45683500000001,37.786042,San Francisco Municipal Transportation Agency,14287,1,CALIFORNIA
16,3858,California St & Divisadero St ,-122.44086999999999,37.788087,San Francisco Municipal Transportation Agency,14287,1,CALIFORNIA
17,3875,California St & Laurel St  ,-122.44995700000001,37.786923,San Francisco Municipal Transportation Agency,14287,1,CALIFORNIA
18,3884,California St & Pierce St  ,-122.43748400000001,37.788517999999996,San Francisco Municipal Transportation Agency,14287,1,CALIFORNIA
19,3886,California St & Park Presidio Blvd,-122.47325,37.784515,San Francisco Municipal Transportation Agency,14287,1,CALIFORNIA
20,3892,California St & Presidio Ave  ,-122.44696499999999,37.787265000000005,San Francisco Municipal Transportation Agency,14287,1,CALIFORNIA
21,3896,California St & Spruce St  ,-122.45352199999999,37.786462,San Francisco Municipal Transportation Agency,14287,1,CALIFORNIA
22,4015,Clay St & Drumm St  ,-122.396819,37.795435999999995,San Francisco Municipal Transportation Agency,14287,1,CALIFORNIA
23,4277,Geary Blvd & 33rd Ave  ,-122.49311200000001,37.779734999999995,San Francisco Municipal Transportation Agency,14287,1,CALIFORNIA
24,6290,Sacramento St & Battery St  ,-122.400282,37.79418,San Francisco Municipal Transportation Agency,14287,1,CALIFORNIA
25,6291,Sacramento St & Buchanan St  ,-122.430617,37.790316,San Francisco Municipal Transportation Agency,14287,1,CALIFORNIA
26,6294,Sacramento St & Davis St  ,-122.39761000000001,37.7945,San Francisco Municipal Transportation Agency,14287,1,CALIFORNIA
27,6295,Sacramento St & Fillmore St  ,-122.434114,37.789861,San Francisco Municipal Transportation Agency,14287,1,CALIFORNIA
28,6297,Sacramento St & Franklin St  ,-122.42403700000001,37.79115,San Francisco Municipal Transportation Agency,14287,1,CALIFORNIA
29,6298,Sacramento St & Gough St  ,-122.42613200000001,37.790887,San Francisco Municipal Transportation Agency,14287,1,CALIFORNIA
30,6299,Sacramento St & Grant Ave  ,-122.406306,37.793411,San Francisco Municipal Transportation Agency,14287,1,CALIFORNIA
31,6300,Sacramento St & Hyde St  ,-122.417445,37.79197,San Francisco Municipal Transportation Agency,14287,1,CALIFORNIA
32,6301,Sacramento St & Jones St  ,-122.41416100000001,37.792396000000004,San Francisco Municipal Transportation Agency,14287,1,CALIFORNIA
33,6302,Sacramento St & Kearny St  ,-122.40484599999999,37.793575,San Francisco Municipal Transportation Agency,14287,1,CALIFORNIA
34,6303,Sacramento St & Larkin St  ,-122.419531,37.791721,San Francisco Municipal Transportation Agency,14287,1,CALIFORNIA
35,6304,Sacramento St & Leavenworth St,-122.415755,37.792183,San Francisco Municipal Transportation Agency,14287,1,CALIFORNIA
36,6305,Sacramento St & Laguna St  ,-122.42896,37.790526,San Francisco Municipal Transportation Agency,14287,1,CALIFORNIA
37,6307,Sacramento St & Montgomery St ,-122.40306799999999,37.793842,San Francisco Municipal Transportation Agency,14287,1,CALIFORNIA
38,6309,Sacramento St & Octavia St   ,-122.427328,37.790743,San Francisco Municipal Transportation Agency,14287,1,CALIFORNIA
39,6311,Sacramento St & Polk St  ,-122.421146,37.791515999999994,San Francisco Municipal Transportation Agency,14287,1,CALIFORNIA
40,6312,Sacramento St & Powell St  ,-122.409116,37.793043,San Francisco Municipal Transportation Agency,14287,1,CALIFORNIA
41,6314,Sacramento St & Sansome St  ,-122.401551,37.79403,San Francisco Municipal Transportation Agency,14287,1,CALIFORNIA
42,6315,Sacramento St & Sproule Ln  ,-122.411864,37.792673,San Francisco Municipal Transportation Agency,14287,1,CALIFORNIA
43,6316,Sacramento St & Stockton St  ,-122.407591,37.793236,San Francisco Municipal Transportation Agency,14287,1,CALIFORNIA
44,6317,Sacramento St & Van Ness Ave  ,-122.42228600000001,37.791378,San Francisco Municipal Transportation Agency,14287,1,CALIFORNIA
45,6319,Sacramento St & Webster St  ,-122.432226,37.790107,San Francisco Municipal Transportation Agency,14287,1,CALIFORNIA
46,6486,Steiner St & California St  ,-122.43556799999999,37.788844,San Francisco Municipal Transportation Agency,14287,1,CALIFORNIA
47,7160,California St & 8th St,-122.466819,37.784791999999996,San Francisco Municipal Transportation Agency,14287,1,CALIFORNIA
48,3546,32nd Ave & California St  ,-122.492442,37.783419,San Francisco Municipal Transportation Agency,14287,1,CALIFORNIA
49,3548,32nd Ave & Clement St  ,-122.49233500000001,37.781995,San Francisco Municipal Transportation Agency,14287,1,CALIFORNIA
50,3555,33rd Ave & Clement St  ,-122.49335400000001,37.781537,San Francisco Municipal Transportation Agency,14287,1,CALIFORNIA
51,3823,California St & 4th Ave  ,-122.46257,37.785178,San Francisco Municipal Transportation Agency,14287,1,CALIFORNIA
52,3825,California St & 6th Ave  ,-122.46470900000001,37.784902,San Francisco Municipal Transportation Agency,14287,1,CALIFORNIA
53,3827,California St & 8th Ave  ,-122.466825,37.78463,San Francisco Municipal Transportation Agency,14287,1,CALIFORNIA
54,3830,California St & 10th Ave  ,-122.46896299999999,37.784551,San Francisco Municipal Transportation Agency,14287,1,CALIFORNIA
55,3832,California St & 12th Ave  ,-122.471103,37.784454,San Francisco Municipal Transportation Agency,14287,1,CALIFORNIA
56,3834,California St & 16th Ave  ,-122.475501,37.784253,San Francisco Municipal Transportation Agency,14287,1,CALIFORNIA
57,3836,California St & 19th Ave  ,-122.47871,37.784109,San Francisco Municipal Transportation Agency,14287,1,CALIFORNIA
58,3838,California St & 22nd Ave  ,-122.481893,37.783941,San Francisco Municipal Transportation Agency,14287,1,CALIFORNIA
59,3840,California St & 25th Ave  ,-122.48528600000002,37.783808,San Francisco Municipal Transportation Agency,14287,1,CALIFORNIA
60,3842,California St & 28th Ave  ,-122.488456,37.783658,San Francisco Municipal Transportation Agency,14287,1,CALIFORNIA
61,3844,California St & 30th Ave  ,-122.49008700000002,37.783578000000006,San Francisco Municipal Transportation Agency,14287,1,CALIFORNIA
62,3846,California St & Arguello Blvd ,-122.45903600000001,37.785659,San Francisco Municipal Transportation Agency,14287,1,CALIFORNIA
63,3848,California St & Baker St  ,-122.44338400000001,37.787620000000004,San Francisco Municipal Transportation Agency,14287,1,CALIFORNIA
64,3853,California St & Cherry St  ,-122.456329,37.785973999999996,San Francisco Municipal Transportation Agency,14287,1,CALIFORNIA
65,3859,California St & Divisadero St ,-122.440721,37.787954,San Francisco Municipal Transportation Agency,14287,1,CALIFORNIA
66,3876,California St & Laurel St  ,-122.44998000000001,37.786801000000004,San Francisco Municipal Transportation Agency,14287,1,CALIFORNIA
67,3885,California St & Pierce St  ,-122.43680800000001,37.788455,San Francisco Municipal Transportation Agency,14287,1,CALIFORNIA
68,3887,California St & Park Presidio Blvd,-122.47276399999998,37.784365,San Francisco Municipal Transportation Agency,14287,1,CALIFORNIA
69,3893,California St & Presidio Ave  ,-122.446931,37.787212,San Francisco Municipal Transportation Agency,14287,1,CALIFORNIA
70,3897,California St & Spruce St  ,-122.45326999999999,37.786382,San Francisco Municipal Transportation Agency,14287,1,CALIFORNIA
71,4015,Clay St & Drumm St  ,-122.396819,37.795435999999995,San Francisco Municipal Transportation Agency,14287,1,CALIFORNIA
72,4016,Clay St & Franklin St  ,-122.42446299999999,37.791907,San Francisco Municipal Transportation Agency,14287,1,CALIFORNIA
73,4017,Clay St & Front St  ,-122.399101,37.795116,San Francisco Municipal Transportation Agency,14287,1,CALIFORNIA
74,4018,Clay St & Grant Ave  ,-122.405971,37.794263,San Francisco Municipal Transportation Agency,14287,1,CALIFORNIA
75,4019,Clay St & Hyde St  ,-122.417899,37.792756,San Francisco Municipal Transportation Agency,14287,1,CALIFORNIA
76,4020,Clay St & Jones St  ,-122.414616,37.793172999999996,San Francisco Municipal Transportation Agency,14287,1,CALIFORNIA
77,4021,Clay St & Kearny St  ,-122.40441100000001,37.794477,San Francisco Municipal Transportation Agency,14287,1,CALIFORNIA
78,4022,Clay St & Larkin St  ,-122.41958899999999,37.792526,San Francisco Municipal Transportation Agency,14287,1,CALIFORNIA
79,4023,Clay St & Leavenworth St  ,-122.416304,37.792959,San Francisco Municipal Transportation Agency,14287,1,CALIFORNIA
80,4024,Clay St & Mason St  ,-122.410823,37.793653000000006,San Francisco Municipal Transportation Agency,14287,1,CALIFORNIA
81,4025,Clay St & Montgomery St  ,-122.40276999999999,37.794682,San Francisco Municipal Transportation Agency,14287,1,CALIFORNIA
82,4026,Clay St & Polk St  ,-122.42101000000001,37.792357,San Francisco Municipal Transportation Agency,14287,1,CALIFORNIA
83,4027,Clay St & Powell St  ,-122.40959099999999,37.793826,San Francisco Municipal Transportation Agency,14287,1,CALIFORNIA
84,4028,Clay St & Sansome St  ,-122.40154299999999,37.79484,San Francisco Municipal Transportation Agency,14287,1,CALIFORNIA
85,4029,Clay St & Stockton St  ,-122.40756100000002,37.794082,San Francisco Municipal Transportation Agency,14287,1,CALIFORNIA
86,4030,Clay St & Taylor St  ,-122.41274399999999,37.793363,San Francisco Municipal Transportation Agency,14287,1,CALIFORNIA
87,4031,Clay St & Van Ness Ave  ,-122.422913,37.792106,San Francisco Municipal Transportation Agency,14287,1,CALIFORNIA
88,4277,Geary Blvd & 33rd Ave  ,-122.49311200000001,37.779734999999995,San Francisco Municipal Transportation Agency,14287,1,CALIFORNIA
89,4905,Gough St & Sacramento St  ,-122.425771,37.791041,San Francisco Municipal Transportation Agency,14287,1,CALIFORNIA
90,6292,Sacramento St & Buchanan St  ,-122.43085500000001,37.790194,San Francisco Municipal Transportation Agency,14287,1,CALIFORNIA
91,6296,Sacramento St & Fillmore St  ,-122.43398799999999,37.789815999999995,San Francisco Municipal Transportation Agency,14287,1,CALIFORNIA
92,6306,Sacramento St & Laguna St  ,-122.429185,37.79036,San Francisco Municipal Transportation Agency,14287,1,CALIFORNIA
93,6310,Sacramento St & Octavia St  ,-122.42761399999999,37.790565,San Francisco Municipal Transportation Agency,14287,1,CALIFORNIA
94,6320,Sacramento St & Webster St  ,-122.4325,37.789986999999996,San Francisco Municipal Transportation Agency,14287,1,CALIFORNIA
95,6489,Steiner St & Sacramento St  ,-122.435556,37.789328999999995,San Francisco Municipal Transportation Agency,14287,1,CALIFORNIA
96,3644,Arguello Blvd & California St ,-122.459254,37.78556,San Francisco Municipal Transportation Agency,14290,2,SUTTER/CLEMENT
97,3852,California St & Cherry St  ,-122.45683500000001,37.786042,San Francisco Municipal Transportation Agency,14290,2,SUTTER/CLEMENT
98,3875,California St & Laurel St  ,-122.44995700000001,37.786923,San Francisco Municipal Transportation Agency,14290,2,SUTTER/CLEMENT
99,3892,California St & Presidio Ave  ,-122.44696499999999,37.787265000000005,San Francisco Municipal Transportation Agency,14290,2,SUTTER/CLEMENT
100,3896,California St & Spruce St  ,-122.45352199999999,37.786462,San Francisco Municipal Transportation Agency,14290,2,SUTTER/CLEMENT
101,4040,Clement St & 4th Ave  ,-122.46257,37.78309,San Francisco Municipal Transportation Agency,14290,2,SUTTER/CLEMENT
102,4042,Clement St & 6th Ave  ,-122.46479,37.783,San Francisco Municipal Transportation Agency,14290,2,SUTTER/CLEMENT
103,4045,Clement St & 10th Ave  ,-122.469,37.7828,San Francisco Municipal Transportation Agency,14290,2,SUTTER/CLEMENT
104,4047,Clement St & 12th Ave  ,-122.47116000000001,37.7827,San Francisco Municipal Transportation Agency,14290,2,SUTTER/CLEMENT
105,5669,Market St & Drumm St   ,-122.396178,37.793473,San Francisco Municipal Transportation Agency,14290,2,SUTTER/CLEMENT
106,5671,Market St & Front St   ,-122.39815,37.791920000000005,San Francisco Municipal Transportation Agency,14290,2,SUTTER/CLEMENT
107,6088,Presidio Ave & California St  ,-122.44673600000002,37.787380999999996,San Francisco Municipal Transportation Agency,14290,2,SUTTER/CLEMENT
108,6098,Presidio Ave & Sutter St  ,-122.446197,37.784535,San Francisco Municipal Transportation Agency,14290,2,SUTTER/CLEMENT
109,6497,Steuart St & Mission St   ,-122.39371299999999,37.793713000000004,San Francisco Municipal Transportation Agency,14290,2,SUTTER/CLEMENT
110,6501,Steuart St & Market St   ,-122.39453799999998,37.794409,San Francisco Municipal Transportation Agency,14290,2,SUTTER/CLEMENT
111,6585,Sutter St & Baker St  ,-122.443067,37.784889,San Francisco Municipal Transportation Agency,14290,2,SUTTER/CLEMENT
112,6587,Sutter St & Buchanan St  ,-122.42986299999998,37.786577,San Francisco Municipal Transportation Agency,14290,2,SUTTER/CLEMENT
113,6589,Sutter St & Divisadero St  ,-122.439732,37.785309999999996,San Francisco Municipal Transportation Agency,14290,2,SUTTER/CLEMENT
114,6591,Sutter St & Fillmore St  ,-122.433151,37.786158,San Francisco Municipal Transportation Agency,14290,2,SUTTER/CLEMENT
115,6593,Sutter St & Gough St  ,-122.424924,37.787207,San Francisco Municipal Transportation Agency,14290,2,SUTTER/CLEMENT
116,6594,Sutter St & Hyde St  ,-122.416908,37.788216,San Francisco Municipal Transportation Agency,14290,2,SUTTER/CLEMENT
117,6595,Sutter St & Jones St  ,-122.413618,37.788643,San Francisco Municipal Transportation Agency,14290,2,SUTTER/CLEMENT
118,6596,Sutter St & Kearny St  ,-122.40437800000001,37.789818,San Francisco Municipal Transportation Agency,14290,2,SUTTER/CLEMENT
119,6597,Sutter St & Larkin St  ,-122.41853600000002,37.788011,San Francisco Municipal Transportation Agency,14290,2,SUTTER/CLEMENT
120,6598,Sutter St & Leavenworth St  ,-122.415269,37.788429,San Francisco Municipal Transportation Agency,14290,2,SUTTER/CLEMENT
121,6599,Sutter St & Laguna St  ,-122.428706,37.786724,San Francisco Municipal Transportation Agency,14290,2,SUTTER/CLEMENT
122,6601,Sutter St & Mason St  ,-122.410316,37.789062,San Francisco Municipal Transportation Agency,14290,2,SUTTER/CLEMENT
123,6602,Sutter St & Octavia St  ,-122.427062,37.786933000000005,San Francisco Municipal Transportation Agency,14290,2,SUTTER/CLEMENT
124,6603,Sutter St & Polk St  ,-122.420198,37.787797,San Francisco Municipal Transportation Agency,14290,2,SUTTER/CLEMENT
125,6604,Sutter St & Powell St  ,-122.408677,37.789266,San Francisco Municipal Transportation Agency,14290,2,SUTTER/CLEMENT
126,6606,Sutter St & Sansome St  ,-122.400674,37.790298,San Francisco Municipal Transportation Agency,14290,2,SUTTER/CLEMENT
127,6607,Sutter St & Scott St  ,-122.438078,37.78552,San Francisco Municipal Transportation Agency,14290,2,SUTTER/CLEMENT
128,6609,Sutter St & Steiner St  ,-122.434793,37.785942,San Francisco Municipal Transportation Agency,14290,2,SUTTER/CLEMENT
129,6611,Sutter St & Stockton St  ,-122.407026,37.78948,San Francisco Municipal Transportation Agency,14290,2,SUTTER/CLEMENT
130,6612,Sutter St & Taylor St  ,-122.411956,37.788857,San Francisco Municipal Transportation Agency,14290,2,SUTTER/CLEMENT
131,6613,Sutter St & Van Ness Ave  ,-122.42154,37.78763,San Francisco Municipal Transportation Agency,14290,2,SUTTER/CLEMENT
132,7019,Clement St & 8th Ave,-122.466422,37.782893,San Francisco Municipal Transportation Agency,14290,2,SUTTER/CLEMENT
133,7250,ARGUELLO BLVD & EUCLID AVE,-122.45910500000001,37.783258000000004,San Francisco Municipal Transportation Agency,14290,2,SUTTER/CLEMENT
134,7543,Clement St & 14 Ave,-122.473077,37.782498,San Francisco Municipal Transportation Agency,14290,2,SUTTER/CLEMENT
135,7759,Mission & Main St,-122.39475800000001,37.791884,San Francisco Municipal Transportation Agency,14290,2,SUTTER/CLEMENT
136,3647,Arguello Blvd & Euclid Ave  ,-122.458956,37.78374,San Francisco Municipal Transportation Agency,14290,2,SUTTER/CLEMENT
137,3846,California St & Arguello Blvd ,-122.45903600000001,37.785659,San Francisco Municipal Transportation Agency,14290,2,SUTTER/CLEMENT
138,3853,California St & Cherry St  ,-122.456329,37.785973999999996,San Francisco Municipal Transportation Agency,14290,2,SUTTER/CLEMENT
139,3876,California St & Laurel St  ,-122.44998000000001,37.786801000000004,San Francisco Municipal Transportation Agency,14290,2,SUTTER/CLEMENT
140,3893,California St & Presidio Ave  ,-122.446931,37.787212,San Francisco Municipal Transportation Agency,14290,2,SUTTER/CLEMENT
141,3897,California St & Spruce St  ,-122.45326999999999,37.786382,San Francisco Municipal Transportation Agency,14290,2,SUTTER/CLEMENT
142,4039,Clement St & 2nd Ave  ,-122.45982,37.78309,San Francisco Municipal Transportation Agency,14290,2,SUTTER/CLEMENT
143,4041,Clement St & 4th Ave  ,-122.46195,37.782990000000005,San Francisco Municipal Transportation Agency,14290,2,SUTTER/CLEMENT
144,4043,Clement St & 6th Ave  ,-122.464331,37.782856,San Francisco Municipal Transportation Agency,14290,2,SUTTER/CLEMENT
145,4044,Clement St & 8th Ave  ,-122.46615800000001,37.782798,San Francisco Municipal Transportation Agency,14290,2,SUTTER/CLEMENT
146,4046,Clement St & 10th Ave  ,-122.46837,37.7827,San Francisco Municipal Transportation Agency,14290,2,SUTTER/CLEMENT
147,4048,Clement St & 12th Ave  ,-122.47097,37.782579999999996,San Francisco Municipal Transportation Agency,14290,2,SUTTER/CLEMENT
148,5591,Mission St & Fremont St   ,-122.39695,37.79015,San Francisco Municipal Transportation Agency,14290,2,SUTTER/CLEMENT
149,5638,Market St & 1st St   ,-122.399138,37.790896000000004,San Francisco Municipal Transportation Agency,14290,2,SUTTER/CLEMENT
150,5658,Market St & Beale St   ,-122.397016,37.792572,San Francisco Municipal Transportation Agency,14290,2,SUTTER/CLEMENT
151,6016,Post St & Larkin St  ,-122.41771999999999,37.78705,San Francisco Municipal Transportation Agency,14290,2,SUTTER/CLEMENT
152,6017,Post St & Leavenworth St  ,-122.41458999999999,37.78745,San Francisco Municipal Transportation Agency,14290,2,SUTTER/CLEMENT
153,6018,Post St & Laguna St  ,-122.427675,37.785773999999996,San Francisco Municipal Transportation Agency,14290,2,SUTTER/CLEMENT
154,6019,Post St & Montgomery St   ,-122.40248600000001,37.789014,San Francisco Municipal Transportation Agency,14290,2,SUTTER/CLEMENT
155,6020,Post St & Octavia St  ,-122.426654,37.785906,San Francisco Municipal Transportation Agency,14290,2,SUTTER/CLEMENT
156,6021,Post St & Polk St  ,-122.41956,37.7868,San Francisco Municipal Transportation Agency,14290,2,SUTTER/CLEMENT
157,6022,Post St & Powell St  ,-122.40793000000001,37.7883,San Francisco Municipal Transportation Agency,14290,2,SUTTER/CLEMENT
158,6023,Post St & Taylor St  ,-122.41131999999999,37.78788,San Francisco Municipal Transportation Agency,14290,2,SUTTER/CLEMENT
159,6024,Post St & Van Ness Ave  ,-122.421448,37.786575,San Francisco Municipal Transportation Agency,14290,2,SUTTER/CLEMENT
160,6089,Presidio Ave & California St  ,-122.446851,37.787319000000004,San Francisco Municipal Transportation Agency,14290,2,SUTTER/CLEMENT
161,6124,Post St & Gough St  ,-122.424761,37.786174,San Francisco Municipal Transportation Agency,14290,2,SUTTER/CLEMENT
162,6125,Post St & Grant Ave   ,-122.40598999999999,37.78855,San Francisco Municipal Transportation Agency,14290,2,SUTTER/CLEMENT
163,6126,Post St & Hyde St  ,-122.41626000000001,37.787240000000004,San Francisco Municipal Transportation Agency,14290,2,SUTTER/CLEMENT
164,6127,Post St & Jones St  ,-122.41295,37.78765,San Francisco Municipal Transportation Agency,14290,2,SUTTER/CLEMENT
165,6475,Spear St & Market St   ,-122.39547900000001,37.793597999999996,San Francisco Municipal Transportation Agency,14290,2,SUTTER/CLEMENT
166,6497,Steuart St & Mission St   ,-122.39371299999999,37.793713000000004,San Francisco Municipal Transportation Agency,14290,2,SUTTER/CLEMENT
167,6586,Sutter St & Baker St  ,-122.443306,37.784766,San Francisco Municipal Transportation Agency,14290,2,SUTTER/CLEMENT
168,6588,Sutter St & Buchanan St  ,-122.429608,37.786502,San Francisco Municipal Transportation Agency,14290,2,SUTTER/CLEMENT
169,6590,Sutter St & Divisadero St  ,-122.43943,37.785259,San Francisco Municipal Transportation Agency,14290,2,SUTTER/CLEMENT
170,6592,Sutter St & Fillmore St  ,-122.432828,37.786086,San Francisco Municipal Transportation Agency,14290,2,SUTTER/CLEMENT
171,6600,Sutter St & Laguna St  ,-122.42845700000001,37.786646999999995,San Francisco Municipal Transportation Agency,14290,2,SUTTER/CLEMENT
172,6605,Sutter St & Presidio Ave  ,-122.446175,37.784383,San Francisco Municipal Transportation Agency,14290,2,SUTTER/CLEMENT
173,6608,Sutter St & Scott St  ,-122.438322,37.785402000000005,San Francisco Municipal Transportation Agency,14290,2,SUTTER/CLEMENT
174,6610,Sutter St & Steiner St  ,-122.435028,37.785794,San Francisco Municipal Transportation Agency,14290,2,SUTTER/CLEMENT
175,7543,Clement St & 14 Ave,-122.473077,37.782498,San Francisco Municipal Transportation Agency,14290,2,SUTTER/CLEMENT
176,7759,Mission & Main St,-122.39475800000001,37.791884,San Francisco Municipal Transportation Agency,14290,2,SUTTER/CLEMENT
177,3183,6th Ave & Fulton St  ,-122.46374499999999,37.773809,San Francisco Municipal Transportation Agency,14292,5,FULTON
178,3200,8th Ave & Cabrillo St  ,-122.466095,37.775022,San Francisco Municipal Transportation Agency,14292,5,FULTON
179,3923,Cabrillo St & 6th Ave  ,-122.463975,37.775451000000004,San Francisco Municipal Transportation Agency,14292,5,FULTON
180,3927,Cabrillo St & La Playa St,-122.510002,37.773527,San Francisco Municipal Transportation Agency,14292,5,FULTON
181,4211,Fulton St & 33rd Ave  ,-122.49318000000001,37.77223,San Francisco Municipal Transportation Agency,14292,5,FULTON
182,4213,Fulton St & 36th Ave  ,-122.49633999999999,37.772079999999995,San Francisco Municipal Transportation Agency,14292,5,FULTON
183,4221,Fulton St & 46th Ave  ,-122.50703999999999,37.77159,San Francisco Municipal Transportation Agency,14292,5,FULTON
184,4223,Fulton St & Arguello Blvd  ,-122.45841599999999,37.774353999999995,San Francisco Municipal Transportation Agency,14292,5,FULTON
185,4225,Fulton St & Clayton St  ,-122.449774,37.775407,San Francisco Municipal Transportation Agency,14292,5,FULTON
186,4229,Fulton St & Masonic Ave  ,-122.446404,37.775844,San Francisco Municipal Transportation Agency,14292,5,FULTON
187,4231,Fulton St & Park Presidio Blvd,-122.47218000000001,37.77319,San Francisco Municipal Transportation Agency,14292,5,FULTON
188,4233,Fulton St & Parker Ave  ,-122.452868,37.775014,San Francisco Municipal Transportation Agency,14292,5,FULTON
189,4236,Fulton St & Stanyan StW,-122.45473700000001,37.774772999999996,San Francisco Municipal Transportation Agency,14292,5,FULTON
190,4730,Fulton St & 4th Ave  ,-122.46165900000001,37.773952,San Francisco Municipal Transportation Agency,14292,5,FULTON
191,4732,Fulton St & 6th Ave  ,-122.463848,37.773639,San Francisco Municipal Transportation Agency,14292,5,FULTON
192,4734,Fulton St & 8th Ave  ,-122.466049,37.77347,San Francisco Municipal Transportation Agency,14292,5,FULTON
193,4735,Fulton St & 8th Ave  ,-122.46573899999999,37.773317999999996,San Francisco Municipal Transportation Agency,14292,5,FULTON
194,4736,Fulton St & 10th Ave  ,-122.46838999999999,37.77335,San Francisco Municipal Transportation Agency,14292,5,FULTON
195,4742,Fulton St & 18th Ave  ,-122.476776,37.772959,San Francisco Municipal Transportation Agency,14292,5,FULTON
196,4746,Fulton St & 22nd Ave  ,-122.48133999999999,37.77276,San Francisco Municipal Transportation Agency,14292,5,FULTON
197,4748,Fulton St & 25th Ave  ,-122.484306,37.772591,San Francisco Municipal Transportation Agency,14292,5,FULTON
198,4842,La Playa St & Cabrillo St  ,-122.50999099999999,37.773214,San Francisco Municipal Transportation Agency,14292,5,FULTON
199,4844,La Playa St & Fulton St  ,-122.50984,37.77169,San Francisco Municipal Transportation Agency,14292,5,FULTON
200,5056,Howard St & Main St   ,-122.39354399999999,37.790394,San Francisco Municipal Transportation Agency,14292,5,FULTON
201,5384,Mcallister St & Baker St  ,-122.441659,37.777397,San Francisco Municipal Transportation Agency,14292,5,FULTON
202,5389,Mcallister St & Divisadero St ,-122.43828899999998,37.777825,San Francisco Municipal Transportation Agency,14292,5,FULTON
203,5391,Mcallister St & Fillmore St  ,-122.43207,37.77864,San Francisco Municipal Transportation Agency,14292,5,FULTON
204,5393,Mcallister St & Gough St  ,-122.42386,37.77969,San Francisco Municipal Transportation Agency,14292,5,FULTON
205,5395,Mcallister St & Hyde St  ,-122.41568999999998,37.78073,San Francisco Municipal Transportation Agency,14292,5,FULTON
206,5397,Mcallister St & Larkin St  ,-122.41741,37.78051,San Francisco Municipal Transportation Agency,14292,5,FULTON
207,5398,Mcallister St & Laguna St  ,-122.42694099999999,37.779331,San Francisco Municipal Transportation Agency,14292,5,FULTON
208,5400,Mcallister St & Pierce St  ,-122.435045,37.778244,San Francisco Municipal Transportation Agency,14292,5,FULTON
209,5404,Mcallister St & Van Ness Ave  ,-122.42071000000001,37.78009,San Francisco Municipal Transportation Agency,14292,5,FULTON
210,5671,Market St & Front St   ,-122.39815,37.791920000000005,San Francisco Municipal Transportation Agency,14292,5,FULTON
211,5674,Market St & Grant Ave   ,-122.40516000000001,37.786390000000004,San Francisco Municipal Transportation Agency,14292,5,FULTON
212,5683,Market St & Mason St   ,-122.40964,37.78285,San Francisco Municipal Transportation Agency,14292,5,FULTON
213,5684,Market St & Montgomery St   ,-122.40248000000001,37.78849,San Francisco Municipal Transportation Agency,14292,5,FULTON
214,5688,Market St & Powell St   ,-122.407544,37.784473999999996,San Francisco Municipal Transportation Agency,14292,5,FULTON
215,5689,Market St & Sansome St   ,-122.40049099999999,37.790013,San Francisco Municipal Transportation Agency,14292,5,FULTON
216,7563,McAllister St & Jones St,-122.41218899999998,37.781166,San Francisco Municipal Transportation Agency,14292,5,FULTON
217,7727,Fulton S t& 28th Ave,-122.487504,37.772474,San Francisco Municipal Transportation Agency,14292,5,FULTON
218,7728,Fulton S t& 30th Ave ,-122.48962399999999,37.772375,San Francisco Municipal Transportation Agency,14292,5,FULTON
219,7729,Fulton St & 40th Ave,-122.50034,37.771879999999996,San Francisco Municipal Transportation Agency,14292,5,FULTON
220,7730,Fulton St t& 43rd  Ave ,-122.50353700000001,37.771736,San Francisco Municipal Transportation Agency,14292,5,FULTON
221,3089,Beale St & Mission St   ,-122.396879,37.791939,San Francisco Municipal Transportation Agency,14292,5,FULTON
222,3161,4th St & Market St   ,-122.405675,37.785527,San Francisco Municipal Transportation Agency,14292,5,FULTON
223,3927,Cabrillo St & La Playa St,-122.510002,37.773527,San Francisco Municipal Transportation Agency,14292,5,FULTON
224,4212,Fulton St & 33rd Ave  ,-122.49288,37.7721,San Francisco Municipal Transportation Agency,14292,5,FULTON
225,4215,Fulton St & 37th Ave  ,-122.49678999999999,37.77192,San Francisco Municipal Transportation Agency,14292,5,FULTON
226,4218,Fulton St & 40th Ave  ,-122.49991000000001,37.77179,San Francisco Municipal Transportation Agency,14292,5,FULTON
227,4222,Fulton St & 46th Ave  ,-122.50631000000001,37.77148,San Francisco Municipal Transportation Agency,14292,5,FULTON
228,4224,Fulton St & Arguello Blvd  ,-122.458003,37.774282,San Francisco Municipal Transportation Agency,14292,5,FULTON
229,4226,Fulton St & Clayton St  ,-122.44928999999999,37.77537,San Francisco Municipal Transportation Agency,14292,5,FULTON
230,4228,Fulton St & La Playa St  ,-122.50939,37.77134,San Francisco Municipal Transportation Agency,14292,5,FULTON
231,4230,Fulton St & Masonic Ave  ,-122.446289,37.775773,San Francisco Municipal Transportation Agency,14292,5,FULTON
232,4232,Fulton St & Park Presidio Blvd,-122.471699,37.773067,San Francisco Municipal Transportation Agency,14292,5,FULTON
233,4234,Fulton St & Shrader St  ,-122.45238,37.77499,San Francisco Municipal Transportation Agency,14292,5,FULTON
234,4235,Fulton St & Stanyan St,-122.45451899999999,37.774756,San Francisco Municipal Transportation Agency,14292,5,FULTON
235,4731,Fulton St & 4th Ave  ,-122.46125,37.77384,San Francisco Municipal Transportation Agency,14292,5,FULTON
236,4733,Fulton St & 6th Ave  ,-122.46383700000001,37.773532,San Francisco Municipal Transportation Agency,14292,5,FULTON
237,4735,Fulton St & 8th Ave  ,-122.46573899999999,37.773317999999996,San Francisco Municipal Transportation Agency,14292,5,FULTON
238,4737,Fulton St & 10th Ave  ,-122.46761000000001,37.77325,San Francisco Municipal Transportation Agency,14292,5,FULTON
239,4747,Fulton St & 22nd Ave  ,-122.48061000000001,37.772659999999995,San Francisco Municipal Transportation Agency,14292,5,FULTON
240,4749,Fulton St & 25th Ave  ,-122.4841,37.772546999999996,San Francisco Municipal Transportation Agency,14292,5,FULTON
241,4751,Fulton St & 28th Ave  ,-122.48716999999999,37.77235,San Francisco Municipal Transportation Agency,14292,5,FULTON
242,4753,Fulton St & 30th Ave  ,-122.48919,37.772240000000004,San Francisco Municipal Transportation Agency,14292,5,FULTON
243,4843,La Playa St & Cabrillo St  ,-122.51006000000001,37.773214,San Francisco Municipal Transportation Agency,14292,5,FULTON
244,4850,Larkin St & Mcallister St  ,-122.41686499999999,37.780569,San Francisco Municipal Transportation Agency,14292,5,FULTON
245,5056,Howard St & Main St   ,-122.39354399999999,37.790394,San Francisco Municipal Transportation Agency,14292,5,FULTON
246,5385,Mcallister St & Baker St  ,-122.44185,37.77731,San Francisco Municipal Transportation Agency,14292,5,FULTON
247,5390,Mcallister St & Divisadero St ,-122.43851000000001,37.77773,San Francisco Municipal Transportation Agency,14292,5,FULTON
248,5392,Mcallister St & Fillmore St  ,-122.431744,37.778618,San Francisco Municipal Transportation Agency,14292,5,FULTON
249,5394,Mcallister St & Gough St  ,-122.42345700000001,37.779607,San Francisco Municipal Transportation Agency,14292,5,FULTON
250,5396,Mcallister St & Hyde St   ,-122.41587,37.780609999999996,San Francisco Municipal Transportation Agency,14292,5,FULTON
251,5399,Mcallister St & Laguna St  ,-122.426781,37.779188,San Francisco Municipal Transportation Agency,14292,5,FULTON
252,5401,Mcallister St & Pierce St  ,-122.43518999999999,37.77815,San Francisco Municipal Transportation Agency,14292,5,FULTON
253,5405,Mcallister St & Van Ness Ave  ,-122.420178,37.780052000000005,San Francisco Municipal Transportation Agency,14292,5,FULTON
254,5638,Market St & 1st St   ,-122.399138,37.790896000000004,San Francisco Municipal Transportation Agency,14292,5,FULTON
255,5641,Market St & 3rd St   ,-122.40335900000001,37.787667,San Francisco Municipal Transportation Agency,14292,5,FULTON
256,5642,Market St & 4th St  ,-122.40458600000001,37.786597,San Francisco Municipal Transportation Agency,14292,5,FULTON
257,5644,Market St & 4th St  ,-122.406834,37.78484,San Francisco Municipal Transportation Agency,14292,5,FULTON
258,5646,Market St & 5th St  ,-122.408657,37.783395,San Francisco Municipal Transportation Agency,14292,5,FULTON
259,5648,Market St & 6th St  ,-122.41132900000001,37.781290000000006,San Francisco Municipal Transportation Agency,14292,5,FULTON
260,7563,McAllister St & Jones St,-122.41218899999998,37.781166,San Francisco Municipal Transportation Agency,14292,5,FULTON
261,7635,McAllister St & Leavenworth St ,-122.413587,37.780889,San Francisco Municipal Transportation Agency,14292,5,FULTON
262,7720,Fulton St & 43rd Ave ,-122.50329599999999,37.771612,San Francisco Municipal Transportation Agency,14292,5,FULTON
263,7721,Fulton St & Park Presidio ,-122.476524,37.772834,San Francisco Municipal Transportation Agency,14292,5,FULTON
264,7775,Beale St & Howard St,-122.394461,37.78993,San Francisco Municipal Transportation Agency,14292,5,FULTON
265,7884,Golden Gate Ave & Leavenworth St ,-122.413793,37.781826,San Francisco Municipal Transportation Agency,14292,5,FULTON
266,3215,9th Ave & Judah St  ,-122.466241,37.76204,San Francisco Municipal Transportation Agency,14294,6,HAIGHT-PARNASSUS
267,3216,9th Ave & Kirkham St  ,-122.466149,37.760407,San Francisco Municipal Transportation Agency,14294,6,HAIGHT-PARNASSUS
268,3218,9th Ave & Lawton St  ,-122.466022,37.758533,San Francisco Municipal Transportation Agency,14294,6,HAIGHT-PARNASSUS
269,3222,9th Ave & Moraga St  ,-122.465884,37.756677,San Francisco Municipal Transportation Agency,14294,6,HAIGHT-PARNASSUS
270,3224,9th Ave & Noriega St  ,-122.46575800000001,37.754804,San Francisco Municipal Transportation Agency,14294,6,HAIGHT-PARNASSUS
271,3226,9th Ave & Ortega St  ,-122.465631,37.752939000000005,San Francisco Municipal Transportation Agency,14294,6,HAIGHT-PARNASSUS
272,3232,10th Ave & Pacheco St  ,-122.46654699999999,37.750699,San Francisco Municipal Transportation Agency,14294,6,HAIGHT-PARNASSUS
273,3234,10th Ave & Quintara St  ,-122.46643200000001,37.749164,San Francisco Municipal Transportation Agency,14294,6,HAIGHT-PARNASSUS
274,3247,14th Ave & Quintara St   ,-122.47073999999999,37.748870000000004,San Francisco Municipal Transportation Agency,14294,6,HAIGHT-PARNASSUS
275,4074,Clayton St & Carl St  ,-122.44793999999999,37.766154,San Francisco Municipal Transportation Agency,14294,6,HAIGHT-PARNASSUS
276,4082,Clayton St & Parnassus Ave  ,-122.44775700000001,37.765226,San Francisco Municipal Transportation Agency,14294,6,HAIGHT-PARNASSUS
277,4715,Frederick St & Ashbury St  ,-122.44669099999999,37.767261,San Francisco Municipal Transportation Agency,14294,6,HAIGHT-PARNASSUS
278,4717,Frederick St & Clayton St  ,-122.44791699999999,37.7671,San Francisco Municipal Transportation Agency,14294,6,HAIGHT-PARNASSUS
279,4940,Haight St & Baker St  ,-122.440261,37.770928000000005,San Francisco Municipal Transportation Agency,14294,6,HAIGHT-PARNASSUS
280,4941,Haight St & Buchanan St  ,-122.427058,37.772612,San Francisco Municipal Transportation Agency,14294,6,HAIGHT-PARNASSUS
281,4950,Haight St & Divisadero St  ,-122.437373,37.771293,San Francisco Municipal Transportation Agency,14294,6,HAIGHT-PARNASSUS
282,4952,Haight St & Fillmore St  ,-122.43076,37.77214,San Francisco Municipal Transportation Agency,14294,6,HAIGHT-PARNASSUS
283,4954,Haight St & Gough St  ,-122.42255300000001,37.773183,San Francisco Municipal Transportation Agency,14294,6,HAIGHT-PARNASSUS
284,4955,Haight St & Laguna St  ,-122.425843,37.772764,San Francisco Municipal Transportation Agency,14294,6,HAIGHT-PARNASSUS
285,4960,Haight St & Pierce St  ,-122.43403799999999,37.771721,San Francisco Municipal Transportation Agency,14294,6,HAIGHT-PARNASSUS
286,5190,Judah St & 6th Ave  ,-122.462849,37.762397,San Francisco Municipal Transportation Agency,14294,6,HAIGHT-PARNASSUS
287,5191,Judah St & 7th Ave  ,-122.46435,37.762334,San Francisco Municipal Transportation Agency,14294,6,HAIGHT-PARNASSUS
288,5639,Market St & 2nd St   ,-122.401306,37.789353000000006,San Francisco Municipal Transportation Agency,14294,6,HAIGHT-PARNASSUS
289,5655,Market St & 5th  St   ,-122.407992,37.784082,San Francisco Municipal Transportation Agency,14294,6,HAIGHT-PARNASSUS
290,5656,Market St & 7th St   ,-122.41244099999999,37.780568,San Francisco Municipal Transportation Agency,14294,6,HAIGHT-PARNASSUS
291,5657,Market St & Battery St   ,-122.399069,37.791109999999996,San Francisco Municipal Transportation Agency,14294,6,HAIGHT-PARNASSUS
292,5669,Market St & Drumm St   ,-122.396178,37.793473,San Francisco Municipal Transportation Agency,14294,6,HAIGHT-PARNASSUS
293,5676,Market St & Hyde St   ,-122.414379,37.779105,San Francisco Municipal Transportation Agency,14294,6,HAIGHT-PARNASSUS
294,5678,Market St & Kearny St   ,-122.40337,37.787729999999996,San Francisco Municipal Transportation Agency,14294,6,HAIGHT-PARNASSUS
295,5680,Market St & Larkin St   ,-122.41623600000001,37.777598,San Francisco Municipal Transportation Agency,14294,6,HAIGHT-PARNASSUS
296,5694,Market St & Stockton St   ,-122.405859,37.785777,San Francisco Municipal Transportation Agency,14294,6,HAIGHT-PARNASSUS
297,5695,Market St & Taylor St   ,-122.410228,37.782315999999994,San Francisco Municipal Transportation Agency,14294,6,HAIGHT-PARNASSUS
298,5696,Market St & Van Ness Ave   ,-122.419252,37.775197999999996,San Francisco Municipal Transportation Agency,14294,6,HAIGHT-PARNASSUS
299,5704,Masonic Ave & Frederick St  ,-122.444846,37.767511,San Francisco Municipal Transportation Agency,14294,6,HAIGHT-PARNASSUS
300,5711,Masonic Ave & Haight St  ,-122.445384,37.770152,San Francisco Municipal Transportation Agency,14294,6,HAIGHT-PARNASSUS
301,5827,Ortega St & 10th Ave  ,-122.466479,37.752885,San Francisco Municipal Transportation Agency,14294,6,HAIGHT-PARNASSUS
302,5885,Parnassus Ave & 4th Ave  ,-122.46073999999999,37.762727000000005,San Francisco Municipal Transportation Agency,14294,6,HAIGHT-PARNASSUS
303,5887,500 Parnassus Ave  ,-122.45874599999999,37.763308,San Francisco Municipal Transportation Agency,14294,6,HAIGHT-PARNASSUS
304,5889,Parnassus Ave & Cole St  ,-122.450083,37.764905,San Francisco Municipal Transportation Agency,14294,6,HAIGHT-PARNASSUS
305,5891,Parnassus Ave & Hillway Ave  ,-122.45697,37.763807,San Francisco Municipal Transportation Agency,14294,6,HAIGHT-PARNASSUS
306,5893,Parnassus Ave & Shrader St  ,-122.451103,37.764771,San Francisco Municipal Transportation Agency,14294,6,HAIGHT-PARNASSUS
307,5895,Parnassus Ave & Stanyan St  ,-122.45287900000001,37.764548,San Francisco Municipal Transportation Agency,14294,6,HAIGHT-PARNASSUS
308,5897,Parnassus Ave & Willard St  ,-122.45452900000001,37.764352,San Francisco Municipal Transportation Agency,14294,6,HAIGHT-PARNASSUS
309,6135,Quintara St & 12th Ave  ,-122.468369,37.749039,San Francisco Municipal Transportation Agency,14294,6,HAIGHT-PARNASSUS
310,6168,Quintara St & Cragmont Ave  ,-122.467681,37.749093,San Francisco Municipal Transportation Agency,14294,6,HAIGHT-PARNASSUS
311,6170,Quintara St & Funston Ave  ,-122.46942299999999,37.748985,San Francisco Municipal Transportation Agency,14294,6,HAIGHT-PARNASSUS
312,6501,Steuart St & Market St   ,-122.39453799999998,37.794409,San Francisco Municipal Transportation Agency,14294,6,HAIGHT-PARNASSUS
313,7408,11th St/btw Market & Mission,-122.418656,37.775502,San Francisco Municipal Transportation Agency,14294,6,HAIGHT-PARNASSUS
314,7833,Steuart & Donchee Way ,-122.393725,37.793766,San Francisco Municipal Transportation Agency,14294,6,HAIGHT-PARNASSUS
315,3214,9th Ave & Judah St  ,-122.46608,37.762093,San Francisco Municipal Transportation Agency,14294,6,HAIGHT-PARNASSUS
316,3217,9th Ave & Kirkham St  ,-122.46595400000001,37.760237,San Francisco Municipal Transportation Agency,14294,6,HAIGHT-PARNASSUS
317,3219,9th Ave & Lawton St  ,-122.465827,37.758364,San Francisco Municipal Transportation Agency,14294,6,HAIGHT-PARNASSUS
318,3223,9th Ave & Moraga St  ,-122.46568899999998,37.756508000000004,San Francisco Municipal Transportation Agency,14294,6,HAIGHT-PARNASSUS
319,3225,9th Ave & Noriega St  ,-122.465551,37.754634,San Francisco Municipal Transportation Agency,14294,6,HAIGHT-PARNASSUS
320,3230,10th Ave & Ortega St  ,-122.466502,37.752724,San Francisco Municipal Transportation Agency,14294,6,HAIGHT-PARNASSUS
321,3231,10th Ave & Pacheco St  ,-122.466376,37.750859999999996,San Francisco Municipal Transportation Agency,14294,6,HAIGHT-PARNASSUS
322,3233,10th Ave & Quintara St  ,-122.46626100000002,37.749325,San Francisco Municipal Transportation Agency,14294,6,HAIGHT-PARNASSUS
323,3244,11th St & Market St   ,-122.41852,37.7755,San Francisco Municipal Transportation Agency,14294,6,HAIGHT-PARNASSUS
324,3247,14th Ave & Quintara St   ,-122.47073999999999,37.748870000000004,San Francisco Municipal Transportation Agency,14294,6,HAIGHT-PARNASSUS
325,4073,Clayton St & Carl St  ,-122.447779,37.766288,San Francisco Municipal Transportation Agency,14294,6,HAIGHT-PARNASSUS
326,4078,Clayton St & Frederick St  ,-122.44791699999999,37.766940000000005,San Francisco Municipal Transportation Agency,14294,6,HAIGHT-PARNASSUS
327,4081,Clayton St & Parnassus Ave  ,-122.447608,37.765405,San Francisco Municipal Transportation Agency,14294,6,HAIGHT-PARNASSUS
328,4716,Frederick St & Ashbury St  ,-122.44646200000001,37.767145,San Francisco Municipal Transportation Agency,14294,6,HAIGHT-PARNASSUS
329,4942,Haight St & Buchanan St  ,-122.42732099999999,37.772434000000004,San Francisco Municipal Transportation Agency,14294,6,HAIGHT-PARNASSUS
330,4943,Haight St & Buena Vista East Ave ,-122.44054799999999,37.770749,San Francisco Municipal Transportation Agency,14294,6,HAIGHT-PARNASSUS
331,4951,Haight St & Divisadero St  ,-122.43674299999999,37.771231,San Francisco Municipal Transportation Agency,14294,6,HAIGHT-PARNASSUS
332,4953,Haight St & Fillmore St  ,-122.430347,37.772095,San Francisco Municipal Transportation Agency,14294,6,HAIGHT-PARNASSUS
333,4958,Haight St & Masonic Ave  ,-122.445292,37.770196,San Francisco Municipal Transportation Agency,14294,6,HAIGHT-PARNASSUS
334,4961,Haight St & Pierce St  ,-122.433854,37.771605,San Francisco Municipal Transportation Agency,14294,6,HAIGHT-PARNASSUS
335,5189,Judah St & 5th Ave  ,-122.462001,37.762299,San Francisco Municipal Transportation Agency,14294,6,HAIGHT-PARNASSUS
336,5192,Judah St & 7th Ave  ,-122.46414399999999,37.762201,San Francisco Municipal Transportation Agency,14294,6,HAIGHT-PARNASSUS
337,5640,Market St & 3rd St   ,-122.40351899999999,37.787525,San Francisco Municipal Transportation Agency,14294,6,HAIGHT-PARNASSUS
338,5643,Market St & 4th St   ,-122.405847,37.785705,San Francisco Municipal Transportation Agency,14294,6,HAIGHT-PARNASSUS
339,5645,Market St & 5th St   ,-122.40814099999999,37.783885999999995,San Francisco Municipal Transportation Agency,14294,6,HAIGHT-PARNASSUS
340,5647,Market St & 6th St   ,-122.4104,37.782102,San Francisco Municipal Transportation Agency,14294,6,HAIGHT-PARNASSUS
341,5650,Market St & 7th St   ,-122.412613,37.780363,San Francisco Municipal Transportation Agency,14294,6,HAIGHT-PARNASSUS
342,5651,Market St & 8th St   ,-122.414826,37.778605999999996,San Francisco Municipal Transportation Agency,14294,6,HAIGHT-PARNASSUS
343,5652,Market St & 9th St   ,-122.41633999999999,37.777409999999996,San Francisco Municipal Transportation Agency,14294,6,HAIGHT-PARNASSUS
344,5658,Market St & Beale St   ,-122.397016,37.792572,San Francisco Municipal Transportation Agency,14294,6,HAIGHT-PARNASSUS
345,5685,Market St & New Montgomery St  ,-122.40216299999999,37.788613,San Francisco Municipal Transportation Agency,14294,6,HAIGHT-PARNASSUS
346,5692,Market St & South Van Ness Ave ,-122.419321,37.775056,San Francisco Municipal Transportation Agency,14294,6,HAIGHT-PARNASSUS
347,5826,Ortega St & 9th Ave  ,-122.465631,37.752778,San Francisco Municipal Transportation Agency,14294,6,HAIGHT-PARNASSUS
348,5890,Parnassus Ave & Cole St  ,-122.449854,37.764789,San Francisco Municipal Transportation Agency,14294,6,HAIGHT-PARNASSUS
349,5892,Parnassus Ave & Hillway Ave  ,-122.456741,37.763718,San Francisco Municipal Transportation Agency,14294,6,HAIGHT-PARNASSUS
350,5894,Parnassus Ave & Shrader St  ,-122.451298,37.764602000000004,San Francisco Municipal Transportation Agency,14294,6,HAIGHT-PARNASSUS
351,5896,Parnassus Ave & Stanyan St  ,-122.45265,37.764432,San Francisco Municipal Transportation Agency,14294,6,HAIGHT-PARNASSUS
352,5898,Parnassus Ave & Willard St  ,-122.4543,37.764236,San Francisco Municipal Transportation Agency,14294,6,HAIGHT-PARNASSUS
353,6136,Quintara St & 12th Ave  ,-122.46856299999999,37.748870000000004,San Francisco Municipal Transportation Agency,14294,6,HAIGHT-PARNASSUS
354,6169,Quintara St & Cragmont Ave  ,-122.467051,37.748977000000004,San Francisco Municipal Transportation Agency,14294,6,HAIGHT-PARNASSUS
355,6171,Quintara St & Funston Ave  ,-122.46963999999998,37.748834,San Francisco Municipal Transportation Agency,14294,6,HAIGHT-PARNASSUS
356,6475,Spear St & Market St   ,-122.39547900000001,37.793597999999996,San Francisco Municipal Transportation Agency,14294,6,HAIGHT-PARNASSUS
357,7025,Frederick St & Masonic St,-122.444823,37.76735,San Francisco Municipal Transportation Agency,14294,6,HAIGHT-PARNASSUS
358,7264,Market St & 1st St ,-122.39919499999999,37.79094,San Francisco Municipal Transportation Agency,14294,6,HAIGHT-PARNASSUS
359,7687,Parnassus Ave &4th Ave ,-122.46094699999999,37.762522,San Francisco Municipal Transportation Agency,14294,6,HAIGHT-PARNASSUS
360,7688,513 Parnassus Ave ,-122.45820800000001,37.763298999999996,San Francisco Municipal Transportation Agency,14294,6,HAIGHT-PARNASSUS
361,7757,Haight St & Gough St ,-122.422301,37.773084000000004,San Francisco Municipal Transportation Agency,14294,6,HAIGHT-PARNASSUS
362,7833,Steuart & Donchee Way ,-122.393725,37.793766,San Francisco Municipal Transportation Agency,14294,6,HAIGHT-PARNASSUS
363,3441,23rd Ave & Irving St  ,-122.481482,37.763134,San Francisco Municipal Transportation Agency,14295,7,HAIGHT-NORIEGA
364,3442,23rd Ave & Judah St  ,-122.481378,37.761608,San Francisco Municipal Transportation Agency,14295,7,HAIGHT-NORIEGA
365,3443,23rd Ave & Kirkham St  ,-122.48123999999999,37.759735,San Francisco Municipal Transportation Agency,14295,7,HAIGHT-NORIEGA
366,3444,23rd Ave & Lawton St  ,-122.481113,37.757870000000004,San Francisco Municipal Transportation Agency,14295,7,HAIGHT-NORIEGA
367,3445,23rd Ave & Lincoln Way  ,-122.481609,37.765026,San Francisco Municipal Transportation Agency,14295,7,HAIGHT-NORIEGA
368,3446,23rd Ave & Moraga St  ,-122.48098600000002,37.756014,San Francisco Municipal Transportation Agency,14295,7,HAIGHT-NORIEGA
369,3447,23rd Ave & Noriega St  ,-122.48086,37.75414,San Francisco Municipal Transportation Agency,14295,7,HAIGHT-NORIEGA
370,4714,Frederick St & Arguello Blvd  ,-122.457601,37.766056,San Francisco Municipal Transportation Agency,14295,7,HAIGHT-NORIEGA
371,4718,Frederick St & Stanyan St  ,-122.45325700000001,37.766413,San Francisco Municipal Transportation Agency,14295,7,HAIGHT-NORIEGA
372,4719,Frederick St & Willard St  ,-122.454908,37.766208,San Francisco Municipal Transportation Agency,14295,7,HAIGHT-NORIEGA
373,4725,Fremont St & Market St   ,-122.398151,37.791645,San Francisco Municipal Transportation Agency,14295,7,HAIGHT-NORIEGA
374,4940,Haight St & Baker St  ,-122.440261,37.770928000000005,San Francisco Municipal Transportation Agency,14295,7,HAIGHT-NORIEGA
375,4941,Haight St & Buchanan St  ,-122.427058,37.772612,San Francisco Municipal Transportation Agency,14295,7,HAIGHT-NORIEGA
376,4946,Haight St & Clayton St  ,-122.448467,37.769892999999996,San Francisco Municipal Transportation Agency,14295,7,HAIGHT-NORIEGA
377,4950,Haight St & Divisadero St  ,-122.437373,37.771293,San Francisco Municipal Transportation Agency,14295,7,HAIGHT-NORIEGA
378,4952,Haight St & Fillmore St  ,-122.43076,37.77214,San Francisco Municipal Transportation Agency,14295,7,HAIGHT-NORIEGA
379,4954,Haight St & Gough St  ,-122.42255300000001,37.773183,San Francisco Municipal Transportation Agency,14295,7,HAIGHT-NORIEGA
380,4955,Haight St & Laguna St  ,-122.425843,37.772764,San Francisco Municipal Transportation Agency,14295,7,HAIGHT-NORIEGA
381,4957,Haight St & Masonic Ave  ,-122.445476,37.770232,San Francisco Municipal Transportation Agency,14295,7,HAIGHT-NORIEGA
382,4960,Haight St & Pierce St  ,-122.43403799999999,37.771721,San Francisco Municipal Transportation Agency,14295,7,HAIGHT-NORIEGA
383,4962,Haight St & Stanyan St   ,-122.452845,37.769331,San Francisco Municipal Transportation Agency,14295,7,HAIGHT-NORIEGA
384,5296,Lincoln Way & 5th Ave  ,-122.46246000000001,37.76618,San Francisco Municipal Transportation Agency,14295,7,HAIGHT-NORIEGA
385,5298,Lincoln Way & 7th Ave  ,-122.464603,37.766090999999996,San Francisco Municipal Transportation Agency,14295,7,HAIGHT-NORIEGA
386,5300,Lincoln Way & 9th Ave  ,-122.466746,37.766001,San Francisco Municipal Transportation Agency,14295,7,HAIGHT-NORIEGA
387,5302,Lincoln Way & 11th Ave  ,-122.46888899999999,37.765903,San Francisco Municipal Transportation Agency,14295,7,HAIGHT-NORIEGA
388,5304,Lincoln Way & 15th Ave  ,-122.473221,37.765715,San Francisco Municipal Transportation Agency,14295,7,HAIGHT-NORIEGA
389,5306,Lincoln Way & 17th Ave  ,-122.475421,37.765615999999994,San Francisco Municipal Transportation Agency,14295,7,HAIGHT-NORIEGA
390,5309,Lincoln Way & 19th Ave  ,-122.47761000000001,37.765526,San Francisco Municipal Transportation Agency,14295,7,HAIGHT-NORIEGA
391,5310,Lincoln Way & 21st Ave  ,-122.47969599999999,37.765428,San Francisco Municipal Transportation Agency,14295,7,HAIGHT-NORIEGA
392,5326,Lincoln Way & Funston Ave  ,-122.47103200000001,37.765813,San Francisco Municipal Transportation Agency,14295,7,HAIGHT-NORIEGA
393,5579,Mission St & Beale St   ,-122.39591599999999,37.791144,San Francisco Municipal Transportation Agency,14295,7,HAIGHT-NORIEGA
394,5639,Market St & 2nd St   ,-122.401306,37.789353000000006,San Francisco Municipal Transportation Agency,14295,7,HAIGHT-NORIEGA
395,5655,Market St & 5th  St   ,-122.407992,37.784082,San Francisco Municipal Transportation Agency,14295,7,HAIGHT-NORIEGA
396,5656,Market St & 7th St   ,-122.41244099999999,37.780568,San Francisco Municipal Transportation Agency,14295,7,HAIGHT-NORIEGA
397,5657,Market St & Battery St   ,-122.399069,37.791109999999996,San Francisco Municipal Transportation Agency,14295,7,HAIGHT-NORIEGA
398,5676,Market St & Hyde St   ,-122.414379,37.779105,San Francisco Municipal Transportation Agency,14295,7,HAIGHT-NORIEGA
399,5678,Market St & Kearny St   ,-122.40337,37.787729999999996,San Francisco Municipal Transportation Agency,14295,7,HAIGHT-NORIEGA
400,5680,Market St & Larkin St   ,-122.41623600000001,37.777598,San Francisco Municipal Transportation Agency,14295,7,HAIGHT-NORIEGA
401,5694,Market St & Stockton St   ,-122.405859,37.785777,San Francisco Municipal Transportation Agency,14295,7,HAIGHT-NORIEGA
402,5695,Market St & Taylor St   ,-122.410228,37.782315999999994,San Francisco Municipal Transportation Agency,14295,7,HAIGHT-NORIEGA
403,5696,Market St & Van Ness Ave   ,-122.419252,37.775197999999996,San Francisco Municipal Transportation Agency,14295,7,HAIGHT-NORIEGA
404,5741,Noriega St & 24th Ave  ,-122.482773,37.754042,San Francisco Municipal Transportation Agency,14295,7,HAIGHT-NORIEGA
405,5745,Noriega St & 28th Ave  ,-122.485993,37.753898,San Francisco Municipal Transportation Agency,14295,7,HAIGHT-NORIEGA
406,5747,Noriega St & 30th Ave  ,-122.489201,37.753754,San Francisco Municipal Transportation Agency,14295,7,HAIGHT-NORIEGA
407,5751,Noriega St & 34th Ave  ,-122.49243200000001,37.753619,San Francisco Municipal Transportation Agency,14295,7,HAIGHT-NORIEGA
408,5753,Noriega St & 38th Ave  ,-122.49671699999999,37.75343,San Francisco Municipal Transportation Agency,14295,7,HAIGHT-NORIEGA
409,5755,Noriega St & 40th Ave  ,-122.498848,37.753331,San Francisco Municipal Transportation Agency,14295,7,HAIGHT-NORIEGA
410,5757,Noriega St & 42nd Ave  ,-122.501002,37.753240999999996,San Francisco Municipal Transportation Agency,14295,7,HAIGHT-NORIEGA
411,5759,Noriega St & 44th Ave  ,-122.50308799999999,37.75316,San Francisco Municipal Transportation Agency,14295,7,HAIGHT-NORIEGA
412,5761,Noriega St & 46th Ave  ,-122.50571200000002,37.753034,San Francisco Municipal Transportation Agency,14295,7,HAIGHT-NORIEGA
413,5763,Noriega St & 48th Ave  ,-122.50785400000001,37.752934,San Francisco Municipal Transportation Agency,14295,7,HAIGHT-NORIEGA
414,5764,Noriega St & Sunset Blvd  ,-122.495056,37.753493,San Francisco Municipal Transportation Agency,14295,7,HAIGHT-NORIEGA
415,5828,Ortega St & 48th Ave  ,-122.507497,37.750981,San Francisco Municipal Transportation Agency,14295,7,HAIGHT-NORIEGA
416,6483,Stanyan St & Waller St  ,-122.453464,37.768330999999996,San Francisco Municipal Transportation Agency,14295,7,HAIGHT-NORIEGA
417,7620,Main St. & Howard St.,-122.393372,37.790483,San Francisco Municipal Transportation Agency,14295,7,HAIGHT-NORIEGA
418,3089,Beale St & Mission St   ,-122.396879,37.791939,San Francisco Municipal Transportation Agency,14295,7,HAIGHT-NORIEGA
419,3425,22nd Ave & Irving St  ,-122.480268,37.763678999999996,San Francisco Municipal Transportation Agency,14295,7,HAIGHT-NORIEGA
420,3426,22nd Ave & Judah St  ,-122.480106,37.761457,San Francisco Municipal Transportation Agency,14295,7,HAIGHT-NORIEGA
421,3427,22nd Ave & Kirkham St  ,-122.47998,37.759592,San Francisco Municipal Transportation Agency,14295,7,HAIGHT-NORIEGA
422,3428,22nd Ave & Lawton St  ,-122.479853,37.757754,San Francisco Municipal Transportation Agency,14295,7,HAIGHT-NORIEGA
423,3429,22nd Ave & Lincoln Way  ,-122.480372,37.765186,San Francisco Municipal Transportation Agency,14295,7,HAIGHT-NORIEGA
424,3430,22nd Ave & Moraga St  ,-122.47971399999999,37.755897999999995,San Francisco Municipal Transportation Agency,14295,7,HAIGHT-NORIEGA
425,3431,22nd Ave & Noriega St  ,-122.479611,37.754337,San Francisco Municipal Transportation Agency,14295,7,HAIGHT-NORIEGA
426,4720,Frederick St & Willard St  ,-122.454701,37.766092,San Francisco Municipal Transportation Agency,14295,7,HAIGHT-NORIEGA
427,4942,Haight St & Buchanan St  ,-122.42732099999999,37.772434000000004,San Francisco Municipal Transportation Agency,14295,7,HAIGHT-NORIEGA
428,4943,Haight St & Buena Vista East Ave ,-122.44054799999999,37.770749,San Francisco Municipal Transportation Agency,14295,7,HAIGHT-NORIEGA
429,4947,Haight St & Clayton St  ,-122.44866200000001,37.769714,San Francisco Municipal Transportation Agency,14295,7,HAIGHT-NORIEGA
430,4951,Haight St & Divisadero St  ,-122.43674299999999,37.771231,San Francisco Municipal Transportation Agency,14295,7,HAIGHT-NORIEGA
431,4953,Haight St & Fillmore St  ,-122.430347,37.772095,San Francisco Municipal Transportation Agency,14295,7,HAIGHT-NORIEGA
432,4958,Haight St & Masonic Ave  ,-122.445292,37.770196,San Francisco Municipal Transportation Agency,14295,7,HAIGHT-NORIEGA
433,4961,Haight St & Pierce St  ,-122.433854,37.771605,San Francisco Municipal Transportation Agency,14295,7,HAIGHT-NORIEGA
434,4963,Haight St & Stanyan St  ,-122.453075,37.76917,San Francisco Municipal Transportation Agency,14295,7,HAIGHT-NORIEGA
435,5295,Lincoln Way & 3rd Ave  ,-122.46014,37.76612,San Francisco Municipal Transportation Agency,14295,7,HAIGHT-NORIEGA
436,5297,Lincoln Way & 5th Ave  ,-122.461887,37.766047,San Francisco Municipal Transportation Agency,14295,7,HAIGHT-NORIEGA
437,5299,Lincoln Way & 7th Ave  ,-122.46400700000001,37.765957,San Francisco Municipal Transportation Agency,14295,7,HAIGHT-NORIEGA
438,5301,Lincoln Way & 9th Ave  ,-122.46623000000001,37.765859000000006,San Francisco Municipal Transportation Agency,14295,7,HAIGHT-NORIEGA
439,5303,Lincoln Way & 11th Ave  ,-122.46871000000002,37.76575,San Francisco Municipal Transportation Agency,14295,7,HAIGHT-NORIEGA
440,5305,Lincoln Way & 15th Ave  ,-122.47305,37.76556,San Francisco Municipal Transportation Agency,14295,7,HAIGHT-NORIEGA
441,5307,Lincoln Way & 17th Ave  ,-122.47523999999999,37.76546,San Francisco Municipal Transportation Agency,14295,7,HAIGHT-NORIEGA
442,5311,Lincoln Way & 21st Ave  ,-122.47948899999999,37.765285,San Francisco Municipal Transportation Agency,14295,7,HAIGHT-NORIEGA
443,5325,Lincoln Way & Arguello Blvd  ,-122.45795600000001,37.765984,San Francisco Municipal Transportation Agency,14295,7,HAIGHT-NORIEGA
444,5327,Lincoln Way & Funston Ave  ,-122.47086000000002,37.76565,San Francisco Municipal Transportation Agency,14295,7,HAIGHT-NORIEGA
445,5638,Market St & 1st St   ,-122.399138,37.790896000000004,San Francisco Municipal Transportation Agency,14295,7,HAIGHT-NORIEGA
446,5641,Market St & 3rd St   ,-122.40335900000001,37.787667,San Francisco Municipal Transportation Agency,14295,7,HAIGHT-NORIEGA
447,5642,Market St & 4th St  ,-122.40458600000001,37.786597,San Francisco Municipal Transportation Agency,14295,7,HAIGHT-NORIEGA
448,5644,Market St & 4th St  ,-122.406834,37.78484,San Francisco Municipal Transportation Agency,14295,7,HAIGHT-NORIEGA
449,5646,Market St & 5th St  ,-122.408657,37.783395,San Francisco Municipal Transportation Agency,14295,7,HAIGHT-NORIEGA
450,5648,Market St & 6th St  ,-122.41132900000001,37.781290000000006,San Francisco Municipal Transportation Agency,14295,7,HAIGHT-NORIEGA
451,5649,Market St & 7th St  ,-122.41318600000001,37.77981,San Francisco Municipal Transportation Agency,14295,7,HAIGHT-NORIEGA
452,5651,Market St & 8th St   ,-122.414826,37.778605999999996,San Francisco Municipal Transportation Agency,14295,7,HAIGHT-NORIEGA
453,5652,Market St & 9th St   ,-122.41633999999999,37.777409999999996,San Francisco Municipal Transportation Agency,14295,7,HAIGHT-NORIEGA
454,5692,Market St & South Van Ness Ave ,-122.419321,37.775056,San Francisco Municipal Transportation Agency,14295,7,HAIGHT-NORIEGA
455,5742,Noriega St & 25th Ave  ,-122.48301399999998,37.753881,San Francisco Municipal Transportation Agency,14295,7,HAIGHT-NORIEGA
456,5744,Noriega St & 27th Ave  ,-122.48516799999999,37.753782,San Francisco Municipal Transportation Agency,14295,7,HAIGHT-NORIEGA
457,5746,Noriega St & 29th Ave  ,-122.48731000000001,37.753692,San Francisco Municipal Transportation Agency,14295,7,HAIGHT-NORIEGA
458,5748,Noriega St & 31st Ave  ,-122.489453,37.753593,San Francisco Municipal Transportation Agency,14295,7,HAIGHT-NORIEGA
459,5752,Noriega St & 34th Ave  ,-122.49265,37.753458,San Francisco Municipal Transportation Agency,14295,7,HAIGHT-NORIEGA
460,5754,Noriega St & 39th Ave  ,-122.49801200000002,37.753215000000004,San Francisco Municipal Transportation Agency,14295,7,HAIGHT-NORIEGA
461,5756,Noriega St & 41st Ave  ,-122.500166,37.753125,San Francisco Municipal Transportation Agency,14295,7,HAIGHT-NORIEGA
462,5758,Noriega St & 43rd Ave  ,-122.50230900000001,37.753026,San Francisco Municipal Transportation Agency,14295,7,HAIGHT-NORIEGA
463,5762,Noriega St & 46th Ave  ,-122.505574,37.752891,San Francisco Municipal Transportation Agency,14295,7,HAIGHT-NORIEGA
464,5765,Noriega St & Sunset Blvd  ,-122.495274,37.753395000000005,San Francisco Municipal Transportation Agency,14295,7,HAIGHT-NORIEGA
465,5828,Ortega St & 48th Ave  ,-122.507497,37.750981,San Francisco Municipal Transportation Agency,14295,7,HAIGHT-NORIEGA
466,6478,Stanyan St & Frederick St  ,-122.45291399999999,37.766449,San Francisco Municipal Transportation Agency,14295,7,HAIGHT-NORIEGA
467,7186,Lincoln Way & 19TH AVE,-122.477209,37.765437,San Francisco Municipal Transportation Agency,14295,7,HAIGHT-NORIEGA
468,7619,Beale St. & Howard St.,-122.394232,37.789823,San Francisco Municipal Transportation Agency,14295,7,HAIGHT-NORIEGA
469,7757,Haight St & Gough St ,-122.422301,37.773084000000004,San Francisco Municipal Transportation Agency,14295,7,HAIGHT-NORIEGA
470,3239,11th St & Harrison St   ,-122.41249199999999,37.770557000000004,San Francisco Municipal Transportation Agency,14300,9,SAN BRUNO
471,3241,11th St & Howard St   ,-122.41538,37.77283,San Francisco Municipal Transportation Agency,14300,9,SAN BRUNO
472,3243,11th St & Mission St   ,-122.41689099999999,37.774038,San Francisco Municipal Transportation Agency,14300,9,SAN BRUNO
473,3245,11th St & Market St   ,-122.418575,37.775368,San Francisco Municipal Transportation Agency,14300,9,SAN BRUNO
474,3768,228 Bay Shore Blvd  ,-122.40443,37.74472,San Francisco Municipal Transportation Agency,14300,9,SAN BRUNO
475,3771,Bay Shore Blvd & Alemany Blvd ,-122.406997,37.737728999999995,San Francisco Municipal Transportation Agency,14300,9,SAN BRUNO
476,3772,Bay Shore Blvd & Arleta Ave   ,-122.40274,37.712208000000004,San Francisco Municipal Transportation Agency,14300,9,SAN BRUNO
477,3773,Bay Shore Blvd & Augusta St  ,-122.40558,37.73425,San Francisco Municipal Transportation Agency,14300,9,SAN BRUNO
478,3779,Bay Shore Blvd & Cortland Ave ,-122.407122,37.73946,San Francisco Municipal Transportation Agency,14300,9,SAN BRUNO
479,3783,Bay Shore Blvd & Leland Ave   ,-122.403783,37.711138,San Francisco Municipal Transportation Agency,14300,9,SAN BRUNO
480,3789,Bay Shore Blvd & Silver Ave  ,-122.404789,37.732963,San Francisco Municipal Transportation Agency,14300,9,SAN BRUNO
481,4436,Division St & Bryant St  ,-122.41073999999999,37.76934,San Francisco Municipal Transportation Agency,14300,9,SAN BRUNO
482,4808,Geneva Ave & Castelo St   ,-122.41823000000001,37.7079,San Francisco Municipal Transportation Agency,14300,9,SAN BRUNO
483,4809,Geneva Ave & Castelo St  ,-122.41841000000001,37.7077,San Francisco Municipal Transportation Agency,14300,9,SAN BRUNO
484,4895,Geneva Ave & Rio Verde St  ,-122.41553400000001,37.706939,San Francisco Municipal Transportation Agency,14300,9,SAN BRUNO
485,4899,Geneva Ave & Santos St   ,-122.419954,37.708368,San Francisco Municipal Transportation Agency,14300,9,SAN BRUNO
486,5639,Market St & 2nd St   ,-122.401306,37.789353000000006,San Francisco Municipal Transportation Agency,14300,9,SAN BRUNO
487,5655,Market St & 5th  St   ,-122.407992,37.784082,San Francisco Municipal Transportation Agency,14300,9,SAN BRUNO
488,5656,Market St & 7th St   ,-122.41244099999999,37.780568,San Francisco Municipal Transportation Agency,14300,9,SAN BRUNO
489,5657,Market St & Battery St   ,-122.399069,37.791109999999996,San Francisco Municipal Transportation Agency,14300,9,SAN BRUNO
490,5669,Market St & Drumm St   ,-122.396178,37.793473,San Francisco Municipal Transportation Agency,14300,9,SAN BRUNO
491,5676,Market St & Hyde St   ,-122.414379,37.779105,San Francisco Municipal Transportation Agency,14300,9,SAN BRUNO
492,5678,Market St & Kearny St   ,-122.40337,37.787729999999996,San Francisco Municipal Transportation Agency,14300,9,SAN BRUNO
493,5680,Market St & Larkin St   ,-122.41623600000001,37.777598,San Francisco Municipal Transportation Agency,14300,9,SAN BRUNO
494,5694,Market St & Stockton St   ,-122.405859,37.785777,San Francisco Municipal Transportation Agency,14300,9,SAN BRUNO
495,5695,Market St & Taylor St   ,-122.410228,37.782315999999994,San Francisco Municipal Transportation Agency,14300,9,SAN BRUNO
496,6027,Potrero Ave & 16th St  ,-122.407646,37.765701,San Francisco Municipal Transportation Agency,14300,9,SAN BRUNO
497,6034,Potrero Ave & 21st St  ,-122.4069,37.757490000000004,San Francisco Municipal Transportation Agency,14300,9,SAN BRUNO
498,6037,Potrero Ave & 23rd St  ,-122.406747,37.754948999999996,San Francisco Municipal Transportation Agency,14300,9,SAN BRUNO
499,6039,Potrero Ave & 24th St  ,-122.406393,37.752942,San Francisco Municipal Transportation Agency,14300,9,SAN BRUNO
500,6043,Potrero Ave & Alameda St  ,-122.407932,37.768271,San Francisco Municipal Transportation Agency,14300,9,SAN BRUNO
501,6339,Santos St & Brookdale Ave   ,-122.41886399999999,37.711696,San Francisco Municipal Transportation Agency,14300,9,SAN BRUNO
502,6340,Santos St & Brookdale Ave  ,-122.418681,37.711857,San Francisco Municipal Transportation Agency,14300,9,SAN BRUNO
503,6344,Santos St & Geneva Ave   ,-122.42008,37.7085,San Francisco Municipal Transportation Agency,14300,9,SAN BRUNO
504,6345,Santos St & Velasco Ave   ,-122.4193,37.709866999999996,San Francisco Municipal Transportation Agency,14300,9,SAN BRUNO
505,6346,Santos St & Velasco Ave   ,-122.419426,37.710028,San Francisco Municipal Transportation Agency,14300,9,SAN BRUNO
506,6348,3800 San Bruno Ave   ,-122.40057,37.71479,San Francisco Municipal Transportation Agency,14300,9,SAN BRUNO
507,6357,San Bruno Ave & Bacon St   ,-122.40364699999999,37.72752,San Francisco Municipal Transportation Agency,14300,9,SAN BRUNO
508,6358,San Bruno Ave & Dwight St  ,-122.4022,37.72408,San Francisco Municipal Transportation Agency,14300,9,SAN BRUNO
509,6361,San Bruno Ave & Mansell St  ,-122.401223,37.721604,San Francisco Municipal Transportation Agency,14300,9,SAN BRUNO
510,6365,San Bruno Ave & Silver Ave   ,-122.40556000000001,37.73217,San Francisco Municipal Transportation Agency,14300,9,SAN BRUNO
511,6366,San Bruno Ave & Somerset St  ,-122.40213,37.713840000000005,San Francisco Municipal Transportation Agency,14300,9,SAN BRUNO
512,6369,San Bruno Ave & Ward St   ,-122.40048999999999,37.71905,San Francisco Municipal Transportation Agency,14300,9,SAN BRUNO
513,6371,San Bruno Ave & Wilde Ave  ,-122.39993,37.71672,San Francisco Municipal Transportation Agency,14300,9,SAN BRUNO
514,6372,San Bruno Ave & Woolsey St  ,-122.40271000000001,37.72531,San Francisco Municipal Transportation Agency,14300,9,SAN BRUNO
515,6382,Schwerin St & Garrison Ave   ,-122.412,37.709309999999995,San Francisco Municipal Transportation Agency,14300,9,SAN BRUNO
516,6384,Schwerin St & Geneva Ave   ,-122.41335900000001,37.706528000000006,San Francisco Municipal Transportation Agency,14300,9,SAN BRUNO
517,6387,Schwerin St & Sunnydale Ave   ,-122.41151,37.710359999999994,San Francisco Municipal Transportation Agency,14300,9,SAN BRUNO
518,6389,Schwerin St & Velasco Ave   ,-122.41253999999999,37.70813,San Francisco Municipal Transportation Agency,14300,9,SAN BRUNO
519,6565,1725 Sunnydale Ave  ,-122.41953999999998,37.712790000000005,San Francisco Municipal Transportation Agency,14300,9,SAN BRUNO
520,6566,1800 Sunnydale Ave  ,-122.419952,37.712972,San Francisco Municipal Transportation Agency,14300,9,SAN BRUNO
521,6567,1900 Sunnydale Ave  ,-122.42138,37.7134,San Francisco Municipal Transportation Agency,14300,9,SAN BRUNO
522,6568,1901 Sunnydale Ave  ,-122.42115,37.71322,San Francisco Municipal Transportation Agency,14300,9,SAN BRUNO
523,6569,Sunnydale Ave & Bay Shore Blvd ,-122.405204,37.708944,San Francisco Municipal Transportation Agency,14300,9,SAN BRUNO
524,6571,Sunnydale Ave & Cora St  ,-122.40961200000001,37.710203,San Francisco Municipal Transportation Agency,14300,9,SAN BRUNO
525,6574,SUNNYDALE AVE/MCLAREN SCHOOL,-122.423673,37.714133000000004,San Francisco Municipal Transportation Agency,14300,9,SAN BRUNO
526,6575,SUNNYDALE AVE/MCLAREN SCHOOL,-122.42388000000001,37.714017,San Francisco Municipal Transportation Agency,14300,9,SAN BRUNO
527,6576,Sunnydale Ave & Rutland St   ,-122.40851,37.70986,San Francisco Municipal Transportation Agency,14300,9,SAN BRUNO
528,6583,Sunnydale Ave & Talbert St   ,-122.40669,37.70935,San Francisco Municipal Transportation Agency,14300,9,SAN BRUNO
529,7127,Geneva Ave & Rio Verde St,-122.415706,37.707136,San Francisco Municipal Transportation Agency,14300,9,SAN BRUNO
530,7227,Market St & Steuart St,-122.39491699999999,37.794453999999995,San Francisco Municipal Transportation Agency,14300,9,SAN BRUNO
531,7520,Not a public stop,-122.40463100000001,37.709523,San Francisco Municipal Transportation Agency,14300,9,SAN BRUNO
532,7888,Bayshore Blvd & Oakdale Ave ,-122.405402,37.743046,San Francisco Municipal Transportation Agency,14300,9,SAN BRUNO
533,7900,San Bruno Ave & Felton St ,-122.40463100000001,37.729912,San Francisco Municipal Transportation Agency,14300,9,SAN BRUNO
534,7911,Potrero Ave & Mariposa St ,-122.407407,37.763132,San Francisco Municipal Transportation Agency,14300,9,SAN BRUNO
535,7912,Potrero Ave & 19th St,-122.407168,37.760606,San Francisco Municipal Transportation Agency,14300,9,SAN BRUNO
536,3235,11th St & Bryant St   ,-122.4113,37.769807,San Francisco Municipal Transportation Agency,14300,9,SAN BRUNO
537,3238,11th St & Harrison St   ,-122.412526,37.770691,San Francisco Municipal Transportation Agency,14300,9,SAN BRUNO
538,3240,11th St & Howard St   ,-122.41573000000001,37.77333,San Francisco Municipal Transportation Agency,14300,9,SAN BRUNO
539,3244,11th St & Market St   ,-122.41852,37.7755,San Francisco Municipal Transportation Agency,14300,9,SAN BRUNO
540,3775,Bay Shore Blvd & Boutwell St  ,-122.40588000000001,37.73488,San Francisco Municipal Transportation Agency,14300,9,SAN BRUNO
541,3778,Bay Shore Blvd & Cortland Ave ,-122.40677,37.73986,San Francisco Municipal Transportation Agency,14300,9,SAN BRUNO
542,3788,Bay Shore Blvd & Silver Ave  ,-122.40472,37.733213,San Francisco Municipal Transportation Agency,14300,9,SAN BRUNO
543,3793,Bay Shore Blvd & Visitacion Ave,-122.40388999999999,37.71062,San Francisco Municipal Transportation Agency,14300,9,SAN BRUNO
544,4895,Geneva Ave & Rio Verde St  ,-122.41553400000001,37.706939,San Francisco Municipal Transportation Agency,14300,9,SAN BRUNO
545,5640,Market St & 3rd St   ,-122.40351899999999,37.787525,San Francisco Municipal Transportation Agency,14300,9,SAN BRUNO
546,5643,Market St & 4th St   ,-122.405847,37.785705,San Francisco Municipal Transportation Agency,14300,9,SAN BRUNO
547,5645,Market St & 5th St   ,-122.40814099999999,37.783885999999995,San Francisco Municipal Transportation Agency,14300,9,SAN BRUNO
548,5647,Market St & 6th St   ,-122.4104,37.782102,San Francisco Municipal Transportation Agency,14300,9,SAN BRUNO
549,5650,Market St & 7th St   ,-122.412613,37.780363,San Francisco Municipal Transportation Agency,14300,9,SAN BRUNO
550,5651,Market St & 8th St   ,-122.414826,37.778605999999996,San Francisco Municipal Transportation Agency,14300,9,SAN BRUNO
551,5652,Market St & 9th St   ,-122.41633999999999,37.777409999999996,San Francisco Municipal Transportation Agency,14300,9,SAN BRUNO
552,5658,Market St & Beale St   ,-122.397016,37.792572,San Francisco Municipal Transportation Agency,14300,9,SAN BRUNO
553,5685,Market St & New Montgomery St  ,-122.40216299999999,37.788613,San Francisco Municipal Transportation Agency,14300,9,SAN BRUNO
554,6026,Potrero Ave & 16th St   ,-122.407474,37.766031,San Francisco Municipal Transportation Agency,14300,9,SAN BRUNO
555,6038,Potrero Ave & 24th St  ,-122.40633600000001,37.753111,San Francisco Municipal Transportation Agency,14300,9,SAN BRUNO
556,6040,Potrero Ave & 25th St  ,-122.40608,37.75164,San Francisco Municipal Transportation Agency,14300,9,SAN BRUNO
557,6119,Potrero Ave At SF General Hospital,-122.406472,37.755413,San Francisco Municipal Transportation Agency,14300,9,SAN BRUNO
558,6350,3801 San Bruno Ave  ,-122.40046000000001,37.71467,San Francisco Municipal Transportation Agency,14300,9,SAN BRUNO
559,6352,San Bruno Ave & Arleta Ave  ,-122.402419,37.712289,San Francisco Municipal Transportation Agency,14300,9,SAN BRUNO
560,6355,San Bruno Ave & Bacon St  ,-122.40366999999999,37.72797,San Francisco Municipal Transportation Agency,14300,9,SAN BRUNO
561,6360,San Bruno Ave & Mansell St   ,-122.400948,37.721478000000005,San Francisco Municipal Transportation Agency,14300,9,SAN BRUNO
562,6362,San Bruno Ave & Paul Ave   ,-122.4021,37.72418,San Francisco Municipal Transportation Agency,14300,9,SAN BRUNO
563,6364,San Bruno Ave & Silver Ave   ,-122.405523,37.732384,San Francisco Municipal Transportation Agency,14300,9,SAN BRUNO
564,6367,San Bruno Ave & Thornton Ave   ,-122.40462,37.730259999999994,San Francisco Municipal Transportation Agency,14300,9,SAN BRUNO
565,6373,San Bruno Ave & Wayland St   ,-122.40301000000001,37.72637,San Francisco Municipal Transportation Agency,14300,9,SAN BRUNO
566,6383,Schwerin St & Garrison Ave  ,-122.41198,37.70906,San Francisco Municipal Transportation Agency,14300,9,SAN BRUNO
567,6385,Schwerin St & Macdonald Ave   ,-122.41293,37.70709,San Francisco Municipal Transportation Agency,14300,9,SAN BRUNO
568,6386,Schwerin St & Sunnydale Ave   ,-122.41136000000002,37.71049,San Francisco Municipal Transportation Agency,14300,9,SAN BRUNO
569,6388,Schwerin St & Velasco Ave   ,-122.41233999999999,37.708259999999996,San Francisco Municipal Transportation Agency,14300,9,SAN BRUNO
570,6475,Spear St & Market St   ,-122.39547900000001,37.793597999999996,San Francisco Municipal Transportation Agency,14300,9,SAN BRUNO
571,6570,Sunnydale Ave & Cora St   ,-122.409521,37.710007,San Francisco Municipal Transportation Agency,14300,9,SAN BRUNO
572,6584,Sunnydale Ave & Talbert St   ,-122.40700000000001,37.70935,San Francisco Municipal Transportation Agency,14300,9,SAN BRUNO
573,7191,SAN BRUNO AVE & SOMERSET ST,-122.401995,37.713395,San Francisco Municipal Transportation Agency,14300,9,SAN BRUNO
574,7227,Market St & Steuart St,-122.39491699999999,37.794453999999995,San Francisco Municipal Transportation Agency,14300,9,SAN BRUNO
575,7264,Market St & 1st St ,-122.39919499999999,37.79094,San Francisco Municipal Transportation Agency,14300,9,SAN BRUNO
576,7297,Sunnydale Ave & Bay Shore Blvd ,-122.40525,37.708801,San Francisco Municipal Transportation Agency,14300,9,SAN BRUNO
577,7298,Potrero Ave&15th St,-122.407623,37.767334000000005,San Francisco Municipal Transportation Agency,14300,9,SAN BRUNO
578,7520,Not a public stop,-122.40463100000001,37.709523,San Francisco Municipal Transportation Agency,14300,9,SAN BRUNO
579,7886,Bayshore Blvd & Flower St ,-122.40560900000001,37.742377000000005,San Francisco Municipal Transportation Agency,14300,9,SAN BRUNO
580,7887,201 Bayshore Blvd E,-122.40418700000001,37.744616,San Francisco Municipal Transportation Agency,14300,9,SAN BRUNO
581,7899,San Bruno Ave & Harkness Ave ,-122.40011399999999,37.718043,San Francisco Municipal Transportation Agency,14300,9,SAN BRUNO
582,7908,Potrero Ave & 21st St,-122.406723,37.757858,San Francisco Municipal Transportation Agency,14300,9,SAN BRUNO
583,7909,Potrero Ave & 19th St ,-122.40701899999999,37.760740000000006,San Francisco Municipal Transportation Agency,14300,9,SAN BRUNO
584,7910,Potrero Ave & Mariposa St ,-122.40725800000001,37.763283,San Francisco Municipal Transportation Agency,14300,9,SAN BRUNO
585,3004,2nd St & Brannan St   ,-122.392232,37.781853999999996,San Francisco Municipal Transportation Agency,14302,10,TOWNSEND
586,3010,2nd St & Harrison St   ,-122.395016,37.784095,San Francisco Municipal Transportation Agency,14302,10,TOWNSEND
587,3011,2nd St & Howard St   ,-122.398109,37.786559000000004,San Francisco Municipal Transportation Agency,14302,10,TOWNSEND
588,3013,2nd St & Stevenson St   ,-122.40065,37.78862,San Francisco Municipal Transportation Agency,14302,10,TOWNSEND
589,3015,2nd St & Townsend St   ,-122.390685,37.780621999999994,San Francisco Municipal Transportation Agency,14302,10,TOWNSEND
590,3082,Broadway & Grant Ave  ,-122.406345,37.797831,San Francisco Municipal Transportation Agency,14302,10,TOWNSEND
591,3084,Broadway & Montgomery St  ,-122.40396000000001,37.798134000000005,San Francisco Municipal Transportation Agency,14302,10,TOWNSEND
592,3087,Broadway & Stockton St  ,-122.408294,37.797591,San Francisco Municipal Transportation Agency,14302,10,TOWNSEND
593,3313,17th St & De Haro St  ,-122.401711,37.764771,San Francisco Municipal Transportation Agency,14302,10,TOWNSEND
594,3412,20th St & Arkansas St  ,-122.39808000000001,37.75996,San Francisco Municipal Transportation Agency,14302,10,TOWNSEND
595,3453,23rd St & Utah St  ,-122.40494,37.75442,San Francisco Municipal Transportation Agency,14302,10,TOWNSEND
596,3455,23rd St & Vermont St  ,-122.40391000000001,37.75448,San Francisco Municipal Transportation Agency,14302,10,TOWNSEND
597,3504,25th St & Connecticut St  ,-122.39634,37.752359999999996,San Francisco Municipal Transportation Agency,14302,10,TOWNSEND
598,3507,25th St & Dakota St  ,-122.39483200000001,37.7525,San Francisco Municipal Transportation Agency,14302,10,TOWNSEND
599,3512,25th St & Wisconsin St  ,-122.39831000000001,37.75224,San Francisco Municipal Transportation Agency,14302,10,TOWNSEND
600,3516,26th St & De Haro St  ,-122.40015,37.750859999999996,San Francisco Municipal Transportation Agency,14302,10,TOWNSEND
601,3522,26th St & Rhode Island St  ,-122.401124,37.750718,San Francisco Municipal Transportation Agency,14302,10,TOWNSEND
602,3524,26th St & Wisconsin St  ,-122.39866,37.75111,San Francisco Municipal Transportation Agency,14302,10,TOWNSEND
603,3652,Arkansas St & 22nd St  ,-122.39804,37.75745,San Francisco Municipal Transportation Agency,14302,10,TOWNSEND
604,3653,Arkansas St & Madera St  ,-122.39788999999999,37.75597,San Francisco Municipal Transportation Agency,14302,10,TOWNSEND
605,4124,Connecticut St & 17th St  ,-122.39778500000001,37.764749,San Francisco Municipal Transportation Agency,14302,10,TOWNSEND
606,4125,Connecticut St & 18th St  ,-122.39756899999999,37.762614,San Francisco Municipal Transportation Agency,14302,10,TOWNSEND
607,4342,14 Dakota St  ,-122.39576000000001,37.75376,San Francisco Municipal Transportation Agency,14302,10,TOWNSEND
608,4437,Division St & Rhode Island St ,-122.403152,37.76976,San Francisco Municipal Transportation Agency,14302,10,TOWNSEND
609,5147,Jackson St & Fillmore St  ,-122.434676,37.792528999999995,San Francisco Municipal Transportation Agency,14302,10,TOWNSEND
610,5162,Jackson St & Steiner St  ,-122.436109,37.79235,San Francisco Municipal Transportation Agency,14302,10,TOWNSEND
611,5227,Kansas St & 23rd St  ,-122.40248500000001,37.75443,San Francisco Municipal Transportation Agency,14302,10,TOWNSEND
612,5228,Kansas St & 25th St  ,-122.40222299999999,37.751886999999996,San Francisco Municipal Transportation Agency,14302,10,TOWNSEND
613,5229,Kansas St & 26th St  ,-122.402121,37.750834000000005,San Francisco Municipal Transportation Agency,14302,10,TOWNSEND
614,5839,Pacific Ave & Hyde St  ,-122.41839499999999,37.795381,San Francisco Municipal Transportation Agency,14302,10,TOWNSEND
615,5841,Pacific Ave & Jones St  ,-122.41510500000001,37.795790999999994,San Francisco Municipal Transportation Agency,14302,10,TOWNSEND
616,5844,Pacific Ave & Larkin St  ,-122.42003500000001,37.795149,San Francisco Municipal Transportation Agency,14302,10,TOWNSEND
617,5846,Pacific Ave & Leavenworth St  ,-122.416744,37.795586,San Francisco Municipal Transportation Agency,14302,10,TOWNSEND
618,5848,Pacific Ave & Mason St  ,-122.41181399999999,37.796209000000005,San Francisco Municipal Transportation Agency,14302,10,TOWNSEND
619,5850,Pacific Ave & Polk St  ,-122.42148,37.795114,San Francisco Municipal Transportation Agency,14302,10,TOWNSEND
620,5851,Pacific Ave & Polk St  ,-122.42125,37.794998,San Francisco Municipal Transportation Agency,14302,10,TOWNSEND
621,5853,Pacific Ave & Powell St  ,-122.410175,37.796405,San Francisco Municipal Transportation Agency,14302,10,TOWNSEND
622,5857,Pacific Ave & Taylor St  ,-122.41346499999999,37.795995,San Francisco Municipal Transportation Agency,14302,10,TOWNSEND
623,5859,Pacific Ave & Van Ness Ave  ,-122.422901,37.794784,San Francisco Municipal Transportation Agency,14302,10,TOWNSEND
624,6187,Rhode Island St & 15th St  ,-122.40291200000001,37.767466,San Francisco Municipal Transportation Agency,14302,10,TOWNSEND
625,6190,Rhode Island St & 16th St  ,-122.402799,37.766164,San Francisco Municipal Transportation Agency,14302,10,TOWNSEND
626,6191,Rhode Island St & 17th St  ,-122.402673,37.76487,San Francisco Municipal Transportation Agency,14302,10,TOWNSEND
627,6201,Rhode Island St & Alameda St  ,-122.403038,37.768741999999996,San Francisco Municipal Transportation Agency,14302,10,TOWNSEND
628,6327,Sansome St & California St  ,-122.40122,37.79318,San Francisco Municipal Transportation Agency,14302,10,TOWNSEND
629,6328,Sansome St & Clay St  ,-122.40149,37.794470000000004,San Francisco Municipal Transportation Agency,14302,10,TOWNSEND
630,6334,Sansome St & Sutter St  ,-122.40061000000001,37.79034,San Francisco Municipal Transportation Agency,14302,10,TOWNSEND
631,6494,Steiner St & Washington St  ,-122.436132,37.791449,San Francisco Municipal Transportation Agency,14302,10,TOWNSEND
632,6692,Townsend St & 3rd St   ,-122.393037,37.778723,San Francisco Municipal Transportation Agency,14302,10,TOWNSEND
633,6694,Townsend St & 4th St   ,-122.394975,37.777189,San Francisco Municipal Transportation Agency,14302,10,TOWNSEND
634,6696,Townsend St & 5th St   ,-122.3972,37.775432,San Francisco Municipal Transportation Agency,14302,10,TOWNSEND
635,6698,Townsend St & 6th St   ,-122.399424,37.773675,San Francisco Municipal Transportation Agency,14302,10,TOWNSEND
636,6701,Townsend St & 7th St   ,-122.40194699999999,37.771695,San Francisco Municipal Transportation Agency,14302,10,TOWNSEND
637,6813,Van Ness Ave & Jackson St  ,-122.423005,37.794177000000005,San Francisco Municipal Transportation Agency,14302,10,TOWNSEND
638,6915,Washington St & Buchanan St  ,-122.431191,37.791921,San Francisco Municipal Transportation Agency,14302,10,TOWNSEND
639,6916,Washington St & Fillmore St  ,-122.434481,37.791503000000006,San Francisco Municipal Transportation Agency,14302,10,TOWNSEND
640,6917,Washington St & Franklin St  ,-122.42461000000002,37.792759000000004,San Francisco Municipal Transportation Agency,14302,10,TOWNSEND
641,6918,Washington St & Gough St  ,-122.42625,37.792545000000004,San Francisco Municipal Transportation Agency,14302,10,TOWNSEND
642,6923,Washington St & Laguna St  ,-122.429116,37.79218,San Francisco Municipal Transportation Agency,14302,10,TOWNSEND
643,6931,Washington St & Webster St  ,-122.432842,37.791716,San Francisco Municipal Transportation Agency,14302,10,TOWNSEND
644,7518,24th Street & Potrero Avenue,-122.40621000000002,37.753067,San Francisco Municipal Transportation Agency,14302,10,TOWNSEND
645,7544,Connecticut St & 19th St,-122.397473,37.761326000000004,San Francisco Municipal Transportation Agency,14302,10,TOWNSEND
646,7545,23rd St & Dakota St,-122.39677900000001,37.754678000000006,San Francisco Municipal Transportation Agency,14302,10,TOWNSEND
647,7862,Broadway & Sansome St,-122.40234299999999,37.798392,San Francisco Municipal Transportation Agency,14302,10,TOWNSEND
648,7863,Sansome St & Jackson St ,-122.401909,37.796527000000005,San Francisco Municipal Transportation Agency,14302,10,TOWNSEND
649,3003,2nd St & Brannan St   ,-122.39194499999999,37.781827,San Francisco Municipal Transportation Agency,14302,10,TOWNSEND
650,3009,2nd St & Harrison St   ,-122.395325,37.784532,San Francisco Municipal Transportation Agency,14302,10,TOWNSEND
651,3413,20th St & Arkansas St  ,-122.39836000000001,37.75987,San Francisco Municipal Transportation Agency,14302,10,TOWNSEND
652,3450,23RD ST & KANSAS ST,-122.40266799999999,37.754448,San Francisco Municipal Transportation Agency,14302,10,TOWNSEND
653,3452,23rd St & Rhode Island St  ,-122.40169399999999,37.754509999999996,San Francisco Municipal Transportation Agency,14302,10,TOWNSEND
654,3454,23rd St & Utah St  ,-122.405304,37.754298,San Francisco Municipal Transportation Agency,14302,10,TOWNSEND
655,3456,23rd St & Vermont St  ,-122.403631,37.754395,San Francisco Municipal Transportation Agency,14302,10,TOWNSEND
656,3457,23rd St & Wisconsin St  ,-122.39856,37.75481,San Francisco Municipal Transportation Agency,14302,10,TOWNSEND
657,3505,25th St & Connecticut St,-122.39662,37.752241999999995,San Francisco Municipal Transportation Agency,14302,10,TOWNSEND
658,3513,25th St & Wisconsin St  ,-122.398293,37.752162,San Francisco Municipal Transportation Agency,14302,10,TOWNSEND
659,3517,26th St & De Haro St  ,-122.400024,37.750753,San Francisco Municipal Transportation Agency,14302,10,TOWNSEND
660,4123,Connecticut St & 17th St  ,-122.39766100000001,37.76498,San Francisco Municipal Transportation Agency,14302,10,TOWNSEND
661,4126,Connecticut St & 18th St  ,-122.39741000000001,37.76243,San Francisco Municipal Transportation Agency,14302,10,TOWNSEND
662,4127,Connecticut St & 19th St  ,-122.39733000000001,37.76115,San Francisco Municipal Transportation Agency,14302,10,TOWNSEND
663,4343,101 Dakota St   ,-122.39565,37.75374,San Francisco Municipal Transportation Agency,14302,10,TOWNSEND
664,4345,Dakota St & 25th St  ,-122.39468000000001,37.75268,San Francisco Municipal Transportation Agency,14302,10,TOWNSEND
665,4350,De Haro St & 16th St  ,-122.40163000000001,37.766056,San Francisco Municipal Transportation Agency,14302,10,TOWNSEND
666,4438,Division St & Townsend St  ,-122.403301,37.769894,San Francisco Municipal Transportation Agency,14302,10,TOWNSEND
667,5144,Jackson St & Buchanan St  ,-122.431202,37.792965,San Francisco Municipal Transportation Agency,14302,10,TOWNSEND
668,5147,Jackson St & Fillmore St  ,-122.434676,37.792528999999995,San Francisco Municipal Transportation Agency,14302,10,TOWNSEND
669,5148,Jackson St & Franklin St  ,-122.424598,37.793812,San Francisco Municipal Transportation Agency,14302,10,TOWNSEND
670,5149,Jackson St & Gough St  ,-122.42621000000001,37.79358,San Francisco Municipal Transportation Agency,14302,10,TOWNSEND
671,5155,Jackson St & Laguna St  ,-122.4295,37.79315,San Francisco Municipal Transportation Agency,14302,10,TOWNSEND
672,5157,Jackson St & Octavia St  ,-122.42786000000001,37.79336,San Francisco Municipal Transportation Agency,14302,10,TOWNSEND
673,5166,Jackson St & Van Ness Ave  ,-122.423154,37.793954,San Francisco Municipal Transportation Agency,14302,10,TOWNSEND
674,5837,Pacific Ave & Grant Ave  ,-122.40673500000001,37.796984,San Francisco Municipal Transportation Agency,14302,10,TOWNSEND
675,5838,Pacific Ave & Hyde St  ,-122.4182,37.79555,San Francisco Municipal Transportation Agency,14302,10,TOWNSEND
676,5840,Pacific Ave & Jones St  ,-122.41491,37.79596,San Francisco Municipal Transportation Agency,14302,10,TOWNSEND
677,5842,Pacific Ave & Kearny St  ,-122.405222,37.79717,San Francisco Municipal Transportation Agency,14302,10,TOWNSEND
678,5843,Pacific Ave & Larkin St  ,-122.41986299999999,37.795328000000005,San Francisco Municipal Transportation Agency,14302,10,TOWNSEND
679,5845,Pacific Ave & Leavenworth St  ,-122.416549,37.795755,San Francisco Municipal Transportation Agency,14302,10,TOWNSEND
680,5847,Pacific Ave & Mason St  ,-122.41161899999999,37.796378000000004,San Francisco Municipal Transportation Agency,14302,10,TOWNSEND
681,5849,Pacific Ave & Montgomery St  ,-122.403582,37.797393,San Francisco Municipal Transportation Agency,14302,10,TOWNSEND
682,5850,Pacific Ave & Polk St  ,-122.42148,37.795114,San Francisco Municipal Transportation Agency,14302,10,TOWNSEND
683,5852,Pacific Ave & Powell St  ,-122.40999099999999,37.796556,San Francisco Municipal Transportation Agency,14302,10,TOWNSEND
684,5854,Pacific Ave & Sansome St  ,-122.402367,37.797544,San Francisco Municipal Transportation Agency,14302,10,TOWNSEND
685,5856,Pacific Ave & Taylor St  ,-122.41327,37.796165,San Francisco Municipal Transportation Agency,14302,10,TOWNSEND
686,5858,Pacific Ave & Van Ness Ave  ,-122.423096,37.794891,San Francisco Municipal Transportation Agency,14302,10,TOWNSEND
687,6188,Rhode Island St & 15th St  ,-122.40272900000001,37.767315,San Francisco Municipal Transportation Agency,14302,10,TOWNSEND
688,6189,Rhode Island St & 16th St  ,-122.402627,37.766324,San Francisco Municipal Transportation Agency,14302,10,TOWNSEND
689,6198,Rhode Island St & 24th St  ,-122.401569,37.753386,San Francisco Municipal Transportation Agency,14302,10,TOWNSEND
690,6199,Rhode Island St & 25th St  ,-122.401467,37.752109999999995,San Francisco Municipal Transportation Agency,14302,10,TOWNSEND
691,6200,Rhode Island St & 26th St  ,-122.401342,37.750727000000005,San Francisco Municipal Transportation Agency,14302,10,TOWNSEND
692,6202,Rhode Island St & Alameda St  ,-122.40284299999999,37.768572999999996,San Francisco Municipal Transportation Agency,14302,10,TOWNSEND
693,6332,Sansome St & Pine St  ,-122.40086000000001,37.79202,San Francisco Municipal Transportation Agency,14302,10,TOWNSEND
694,6333,Sansome St & Sacramento St  ,-122.40131399999999,37.794055,San Francisco Municipal Transportation Agency,14302,10,TOWNSEND
695,6337,Sansome St & Washington St  ,-122.40166,37.79606,San Francisco Municipal Transportation Agency,14302,10,TOWNSEND
696,6691,Townsend St & 3rd St   ,-122.392452,37.778981,San Francisco Municipal Transportation Agency,14302,10,TOWNSEND
697,6695,Townsend St & 4th St   ,-122.395067,37.776957,San Francisco Municipal Transportation Agency,14302,10,TOWNSEND
698,6697,Townsend St & 5th St   ,-122.39721100000001,37.775227,San Francisco Municipal Transportation Agency,14302,10,TOWNSEND
699,6699,Townsend St & 6th St   ,-122.39943600000001,37.77347,San Francisco Municipal Transportation Agency,14302,10,TOWNSEND
700,6700,Townsend St & 7th St   ,-122.40169499999999,37.771758,San Francisco Municipal Transportation Agency,14302,10,TOWNSEND
701,6957,Wisconsin St & 22nd St  ,-122.39886000000001,37.75719,San Francisco Municipal Transportation Agency,14302,10,TOWNSEND
702,6962,Wisconsin St & 26th St  ,-122.39828200000001,37.751279,San Francisco Municipal Transportation Agency,14302,10,TOWNSEND
703,6966,Wisconsin St & Madera St  ,-122.39872,37.75577,San Francisco Municipal Transportation Agency,14302,10,TOWNSEND
704,7518,24th Street & Potrero Avenue,-122.40621000000002,37.753067,San Francisco Municipal Transportation Agency,14302,10,TOWNSEND
705,7546,Dakota St & 23rd St,-122.39657199999999,37.754705,San Francisco Municipal Transportation Agency,14302,10,TOWNSEND
706,7547,2nd St & Townsend St,-122.39055900000001,37.780702000000005,San Francisco Municipal Transportation Agency,14302,10,TOWNSEND
707,7548,2nd St & Howard St,-122.398315,37.786925,San Francisco Municipal Transportation Agency,14302,10,TOWNSEND
708,7549,2nd St & Stevenson St,-122.40113400000001,37.789173999999996,San Francisco Municipal Transportation Agency,14302,10,TOWNSEND
709,7550,Sansome St & Sutter St,-122.400502,37.790352,San Francisco Municipal Transportation Agency,14302,10,TOWNSEND
710,7553,Jackson St & Webster St,-122.43280700000001,37.792743,San Francisco Municipal Transportation Agency,14302,10,TOWNSEND
711,7737,Pacific Ave & Stockton St,-122.40858100000001,37.796734,San Francisco Municipal Transportation Agency,14302,10,TOWNSEND
712,5528,Mission St & 1st St   ,-122.39748999999999,37.78992,San Francisco Municipal Transportation Agency,14304,14,MISSION
713,5529,Mission St & 2nd St   ,-122.40024,37.78775,San Francisco Municipal Transportation Agency,14304,14,MISSION
714,5532,Mission St & 3rd St   ,-122.40248999999999,37.78597,San Francisco Municipal Transportation Agency,14304,14,MISSION
715,5534,Mission St & 4th St   ,-122.40451999999999,37.78436,San Francisco Municipal Transportation Agency,14304,14,MISSION
716,5536,Mission St & 5th St   ,-122.40664,37.782725,San Francisco Municipal Transportation Agency,14304,14,MISSION
717,5538,Mission St & 6th St   ,-122.4091,37.78075,San Francisco Municipal Transportation Agency,14304,14,MISSION
718,5539,Mission St & 7th St   ,-122.41135,37.77897,San Francisco Municipal Transportation Agency,14304,14,MISSION
719,5540,Mission St & 8th St   ,-122.41355,37.777229999999996,San Francisco Municipal Transportation Agency,14304,14,MISSION
720,5543,Mission St & 9th St   ,-122.41518,37.775940000000006,San Francisco Municipal Transportation Agency,14304,14,MISSION
721,5545,Mission St & 11th St   ,-122.41729199999999,37.774306,San Francisco Municipal Transportation Agency,14304,14,MISSION
722,5548,Mission St & 14th St  ,-122.42002,37.7678,San Francisco Municipal Transportation Agency,14304,14,MISSION
723,5552,Mission St & 16th St  ,-122.419726,37.765036,San Francisco Municipal Transportation Agency,14304,14,MISSION
724,5554,Mission St & 18th St  ,-122.419463,37.761761,San Francisco Municipal Transportation Agency,14304,14,MISSION
725,5558,Mission St & 20th St  ,-122.41909,37.75817,San Francisco Municipal Transportation Agency,14304,14,MISSION
726,5562,Mission St & 22nd St  ,-122.4188,37.75517,San Francisco Municipal Transportation Agency,14304,14,MISSION
727,5566,Mission St & 24th St  ,-122.41852800000001,37.751964,San Francisco Municipal Transportation Agency,14304,14,MISSION
728,5568,Mission St & 26th St  ,-122.41818,37.74857,San Francisco Municipal Transportation Agency,14304,14,MISSION
729,5572,Mission St & 30th St   ,-122.42199099999999,37.742416999999996,San Francisco Municipal Transportation Agency,14304,14,MISSION
730,5573,4080 Mission St  ,-122.428,37.73217,San Francisco Municipal Transportation Agency,14304,14,MISSION
731,5578,Mission St & Appleton Ave   ,-122.42403999999999,37.73899,San Francisco Municipal Transportation Agency,14304,14,MISSION
732,5579,Mission St & Beale St   ,-122.39591599999999,37.791144,San Francisco Municipal Transportation Agency,14304,14,MISSION
733,5580,Mission St & Bosworth St  ,-122.42681999999999,37.733340000000005,San Francisco Municipal Transportation Agency,14304,14,MISSION
734,5584,Mission St & Cortland Ave   ,-122.422874,37.741079,San Francisco Municipal Transportation Agency,14304,14,MISSION
735,5588,Mission St & Flournoy St   ,-122.45906000000001,37.70682,San Francisco Municipal Transportation Agency,14304,14,MISSION
736,5589,Mission St & Foote Ave   ,-122.44462,37.71285,San Francisco Municipal Transportation Agency,14304,14,MISSION
737,5590,Mission St & Francis St   ,-122.43365,37.72635,San Francisco Municipal Transportation Agency,14304,14,MISSION
738,5592,Mission St & Geneva Ave   ,-122.441149,37.716454999999996,San Francisco Municipal Transportation Agency,14304,14,MISSION
739,5594,Mission St & GoeThe St   ,-122.45708,37.707359999999994,San Francisco Municipal Transportation Agency,14304,14,MISSION
740,5597,Mission St & Highland Ave  ,-122.4242,37.73706,San Francisco Municipal Transportation Agency,14304,14,MISSION
741,5598,Mission St & Italy Ave   ,-122.43908700000001,37.71915,San Francisco Municipal Transportation Agency,14304,14,MISSION
742,5600,Mission St & Lawrence Ave   ,-122.45087,37.7095,San Francisco Municipal Transportation Agency,14304,14,MISSION
743,5602,Mission St & Lowell St   ,-122.44648600000001,37.711432,San Francisco Municipal Transportation Agency,14304,14,MISSION
744,5604,Mission St & Mt Vernon Ave   ,-122.44265,37.7147,San Francisco Municipal Transportation Agency,14304,14,MISSION
745,5607,Mission St & Norton St   ,-122.43518999999999,37.724309999999996,San Francisco Municipal Transportation Agency,14304,14,MISSION
746,5609,Mission St & Onondaga Ave   ,-122.43748300000001,37.721282,San Francisco Municipal Transportation Agency,14304,14,MISSION
747,5614,Mission St & Richland Ave  ,-122.4247,37.735620000000004,San Francisco Municipal Transportation Agency,14304,14,MISSION
748,5616,Mission St & Ruth St   ,-122.43633,37.722809999999996,San Francisco Municipal Transportation Agency,14304,14,MISSION
749,5619,Mission St & Sickles Ave   ,-122.45331999999999,37.708659999999995,San Francisco Municipal Transportation Agency,14304,14,MISSION
750,5621,Mission St & Silver Ave   ,-122.431354,37.728722999999995,San Francisco Municipal Transportation Agency,14304,14,MISSION
751,5623,Mission St & Spear St   ,-122.39435,37.792390000000005,San Francisco Municipal Transportation Agency,14304,14,MISSION
752,5625,Mission St & Trumbull St   ,-122.42971000000001,37.73045,San Francisco Municipal Transportation Agency,14304,14,MISSION
753,5626,Mission St & Valencia St   ,-122.4203,37.74508,San Francisco Municipal Transportation Agency,14304,14,MISSION
754,5627,Mission St & Whittier St   ,-122.44833999999999,37.71048,San Francisco Municipal Transportation Agency,14304,14,MISSION
755,5835,150 Otis St  ,-122.42031000000001,37.77073,San Francisco Municipal Transportation Agency,14304,14,MISSION
756,5836,Otis St & 12th St   ,-122.41917,37.77281,San Francisco Municipal Transportation Agency,14304,14,MISSION
757,6498,Steuart St & Mission St  ,-122.39327800000001,37.793248999999996,San Francisco Municipal Transportation Agency,14304,14,MISSION
758,7099,Mission St & San Jose Ave,-122.461372,37.705996999999996,San Francisco Municipal Transportation Agency,14304,14,MISSION
759,7742,Morse St & Lowell St,-122.446211,37.711021,San Francisco Municipal Transportation Agency,14304,14,MISSION
760,5336,Main St & Market St  ,-122.39567,37.79253,San Francisco Municipal Transportation Agency,14304,14,MISSION
761,5530,Mission St & 2nd St   ,-122.39985,37.78787,San Francisco Municipal Transportation Agency,14304,14,MISSION
762,5531,Mission St & 3rd St   ,-122.40156999999999,37.78651,San Francisco Municipal Transportation Agency,14304,14,MISSION
763,5533,Mission St & 4th St   ,-122.40393,37.78464,San Francisco Municipal Transportation Agency,14304,14,MISSION
764,5535,Mission St & 5th St   ,-122.406525,37.782716,San Francisco Municipal Transportation Agency,14304,14,MISSION
765,5537,Mission St & 6th St   ,-122.40831000000001,37.78119,San Francisco Municipal Transportation Agency,14304,14,MISSION
766,5541,Mission St & 8th St   ,-122.41273000000001,37.7777,San Francisco Municipal Transportation Agency,14304,14,MISSION
767,5542,Mission St & 9th St   ,-122.41431000000001,37.77645,San Francisco Municipal Transportation Agency,14304,14,MISSION
768,5544,Mission St & 11th St   ,-122.41712,37.774322999999995,San Francisco Municipal Transportation Agency,14304,14,MISSION
769,5546,Mission St & 13th St  ,-122.41978,37.77047,San Francisco Municipal Transportation Agency,14304,14,MISSION
770,5547,Mission St & 14th St  ,-122.41993000000001,37.76862,San Francisco Municipal Transportation Agency,14304,14,MISSION
771,5551,Mission St & 16th St  ,-122.41966799999999,37.765125,San Francisco Municipal Transportation Agency,14304,14,MISSION
772,5553,Mission St & 18th St  ,-122.419348,37.762634999999996,San Francisco Municipal Transportation Agency,14304,14,MISSION
773,5557,Mission St & 20th St  ,-122.41901999999999,37.75911,San Francisco Municipal Transportation Agency,14304,14,MISSION
774,5561,Mission St & 22nd St  ,-122.41871,37.75582,San Francisco Municipal Transportation Agency,14304,14,MISSION
775,5565,Mission St & 24th St  ,-122.418401,37.752356,San Francisco Municipal Transportation Agency,14304,14,MISSION
776,5567,Mission St & 26th St  ,-122.4181,37.74951,San Francisco Municipal Transportation Agency,14304,14,MISSION
777,5571,Mission St & 30th St    ,-122.421945,37.742408000000005,San Francisco Municipal Transportation Agency,14304,14,MISSION
778,5574,Mission St & Acton St   ,-122.452578,37.708808000000005,San Francisco Municipal Transportation Agency,14304,14,MISSION
779,5575,Mission St & Allison St   ,-122.44264,37.71448,San Francisco Municipal Transportation Agency,14304,14,MISSION
780,5577,Mission St & Appleton Ave   ,-122.42387099999999,37.738867,San Francisco Municipal Transportation Agency,14304,14,MISSION
781,5582,Mission St & Brazil Ave   ,-122.43481000000001,37.724540000000005,San Francisco Municipal Transportation Agency,14304,14,MISSION
782,5583,Mission St & Cortland Ave   ,-122.42275900000001,37.741052,San Francisco Municipal Transportation Agency,14304,14,MISSION
783,5585,Mission St & Evergreen St   ,-122.45653,37.707409999999996,San Francisco Municipal Transportation Agency,14304,14,MISSION
784,5586,Mission St & Excelsior Ave   ,-122.43351000000001,37.726355,San Francisco Municipal Transportation Agency,14304,14,MISSION
785,5593,Mission St & Geneva Ave   ,-122.44078200000001,37.716642,San Francisco Municipal Transportation Agency,14304,14,MISSION
786,5595,Mission St & Guttenberg St  ,-122.44475,37.712509999999995,San Francisco Municipal Transportation Agency,14304,14,MISSION
