,stop_id,stop_name,stop_lon,stop_lat,agency,route_id,route_short_name,route_long_name
0,8,San Jose Airport Terminal A,-121.927596,37.368425,VTA,10,10,SANTA CLARA TRANSIT- METRO AIRPORT
1,12,Airport Parkway & Technology,-121.9209588,37.37060282,VTA,10,10,SANTA CLARA TRANSIT- METRO AIRPORT
2,13,Matrix & 1st,-121.918191,37.371338,VTA,10,10,SANTA CLARA TRANSIT- METRO AIRPORT
3,14,1st & Metro,-121.91588370000001,37.36976951,VTA,10,10,SANTA CLARA TRANSIT- METRO AIRPORT
4,15,Technology & Metro,-121.91906100000001,37.36817004,VTA,10,10,SANTA CLARA TRANSIT- METRO AIRPORT
5,4543,Coleman & Brokaw,-121.9344446,37.35673682,VTA,10,10,SANTA CLARA TRANSIT- METRO AIRPORT
6,4545,Coleman & Earthquake,-121.924081,37.352281,VTA,10,10,SANTA CLARA TRANSIT- METRO AIRPORT
7,5228,Santa Clara Transit Center (Bay 2),-121.93711709999998,37.35339598,VTA,10,10,SANTA CLARA TRANSIT- METRO AIRPORT
8,5560,Technology & Skyport,-121.917057,37.365596999999994,VTA,10,10,SANTA CLARA TRANSIT- METRO AIRPORT
9,6019,San Jose Airport Terminal B,-121.92291100000001,37.364343,VTA,10,10,SANTA CLARA TRANSIT- METRO AIRPORT
10,8,San Jose Airport Terminal A,-121.927596,37.368425,VTA,10,10,SANTA CLARA TRANSIT- METRO AIRPORT
11,11,San Jose Airport Terminal B,-121.923073,37.364453000000005,VTA,10,10,SANTA CLARA TRANSIT- METRO AIRPORT
12,14,1st & Metro,-121.91588370000001,37.36976951,VTA,10,10,SANTA CLARA TRANSIT- METRO AIRPORT
13,15,Technology & Metro,-121.91906100000001,37.36817004,VTA,10,10,SANTA CLARA TRANSIT- METRO AIRPORT
14,16,Airport Parkway & Gateway,-121.9219472,37.37014627,VTA,10,10,SANTA CLARA TRANSIT- METRO AIRPORT
15,20,El Camino & Lafayette,-121.94513470000001,37.3550568,VTA,10,10,SANTA CLARA TRANSIT- METRO AIRPORT
16,4522,Coleman & Newhall,-121.923181,37.352194,VTA,10,10,SANTA CLARA TRANSIT- METRO AIRPORT
17,4523,Coleman & Earthquake,-121.92527700000001,37.353196000000004,VTA,10,10,SANTA CLARA TRANSIT- METRO AIRPORT
18,4524,Coleman & Brokaw,-121.93394409999999,37.35697133,VTA,10,10,SANTA CLARA TRANSIT- METRO AIRPORT
19,5228,Santa Clara Transit Center (Bay 2),-121.93711709999998,37.35339598,VTA,10,10,SANTA CLARA TRANSIT- METRO AIRPORT
20,412,Santa Clara & 1st,-121.8899953,37.33637022,VTA,23,23,DE ANZA COL - ALUM ROCK TRANS CTR
21,413,Santa Clara & 6th,-121.885378,37.338508000000004,VTA,23,23,DE ANZA COL - ALUM ROCK TRANS CTR
22,414,Santa Clara & 7th,-121.8843652,37.33902044,VTA,23,23,DE ANZA COL - ALUM ROCK TRANS CTR
23,415,Santa Clara & 11th,-121.87939820000001,37.34137065,VTA,23,23,DE ANZA COL - ALUM ROCK TRANS CTR
24,416,Santa Clara & 13th,-121.8777636,37.34213684,VTA,23,23,DE ANZA COL - ALUM ROCK TRANS CTR
25,417,Santa Clara & 15th,-121.87603610000001,37.34295963,VTA,23,23,DE ANZA COL - ALUM ROCK TRANS CTR
26,418,Santa Clara & 17th,-121.8744753,37.34370412,VTA,23,23,DE ANZA COL - ALUM ROCK TRANS CTR
27,419,Santa Clara & 21st,-121.8707239,37.34551412,VTA,23,23,DE ANZA COL - ALUM ROCK TRANS CTR
28,420,Santa Clara & 24th,-121.86786200000002,37.346887,VTA,23,23,DE ANZA COL - ALUM ROCK TRANS CTR
29,421,Santa Clara & 28th,-121.8643854,37.34849954,VTA,23,23,DE ANZA COL - ALUM ROCK TRANS CTR
30,422,Alum Rock & 33rd,-121.85922179999999,37.35094715,VTA,23,23,DE ANZA COL - ALUM ROCK TRANS CTR
31,423,Alum Rock & 34th,-121.8575517,37.35174085,VTA,23,23,DE ANZA COL - ALUM ROCK TRANS CTR
32,565,Stevens Creek & Stelling,-122.04093329999999,37.32273552,VTA,23,23,DE ANZA COL - ALUM ROCK TRANS CTR
33,566,Stevens Creek & Bandley,-122.0342106,37.32272815,VTA,23,23,DE ANZA COL - ALUM ROCK TRANS CTR
34,567,Stevens Creek & De Anza,-122.03147299999999,37.32273417,VTA,23,23,DE ANZA COL - ALUM ROCK TRANS CTR
35,568,Stevens Creek & Torre,-122.0270129,37.32275575,VTA,23,23,DE ANZA COL - ALUM ROCK TRANS CTR
36,569,Stevens Creek & Blaney,-122.02239809999999,37.32279861,VTA,23,23,DE ANZA COL - ALUM ROCK TRANS CTR
37,570,Stevens Creek & Portal,-122.01926920000001,37.32281241,VTA,23,23,DE ANZA COL - ALUM ROCK TRANS CTR
38,571,Stevens Creek & Miller,-122.0137165,37.32280888,VTA,23,23,DE ANZA COL - ALUM ROCK TRANS CTR
39,572,Stevens Creek & Finch,-122.0096388,37.32284171,VTA,23,23,DE ANZA COL - ALUM ROCK TRANS CTR
40,573,Stevens Creek & Tantau,-122.00616699999999,37.32289884,VTA,23,23,DE ANZA COL - ALUM ROCK TRANS CTR
41,574,Stevens Creek & Stern,-122.00299199999999,37.32287234,VTA,23,23,DE ANZA COL - ALUM ROCK TRANS CTR
42,575,Stevens Creek & Interstate 280,-121.9974358,37.32288049,VTA,23,23,DE ANZA COL - ALUM ROCK TRANS CTR
43,576,Stevens Creek & Loma Linda,-121.992759,37.32291905,VTA,23,23,DE ANZA COL - ALUM ROCK TRANS CTR
44,577,Stevens Creek & Casa View,-121.9891416,37.3229521,VTA,23,23,DE ANZA COL - ALUM ROCK TRANS CTR
45,578,Stevens Creek & Albany,-121.98700829999999,37.32296658,VTA,23,23,DE ANZA COL - ALUM ROCK TRANS CTR
46,579,Stevens Creek & Richfield,-121.98410200000001,37.32298546,VTA,23,23,DE ANZA COL - ALUM ROCK TRANS CTR
47,580,Stevens Creek & Palace,-121.98135990000002,37.32299726,VTA,23,23,DE ANZA COL - ALUM ROCK TRANS CTR
48,581,Stevens Creek & Lopina,-121.97920859999999,37.32300943,VTA,23,23,DE ANZA COL - ALUM ROCK TRANS CTR
49,582,Stevens Creek & Kiely,-121.9743238,37.32303772,VTA,23,23,DE ANZA COL - ALUM ROCK TRANS CTR
50,583,Stevens Creek & Saratoga,-121.96901270000001,37.32307572,VTA,23,23,DE ANZA COL - ALUM ROCK TRANS CTR
51,584,Stevens Creek & Boynton,-121.96584309999999,37.32309813,VTA,23,23,DE ANZA COL - ALUM ROCK TRANS CTR
52,585,Stevens Creek & Harold,-121.9625586,37.32312425,VTA,23,23,DE ANZA COL - ALUM ROCK TRANS CTR
53,586,Stevens Creek & Cypress,-121.9593813,37.32313938,VTA,23,23,DE ANZA COL - ALUM ROCK TRANS CTR
54,587,Stevens Creek & Henry,-121.95517590000001,37.32315972,VTA,23,23,DE ANZA COL - ALUM ROCK TRANS CTR
55,588,Stevens Creek & Maplewood,-121.95312949999999,37.32316783,VTA,23,23,DE ANZA COL - ALUM ROCK TRANS CTR
56,590,Forest & Monroe,-121.94352920000001,37.32693988,VTA,23,23,DE ANZA COL - ALUM ROCK TRANS CTR
57,591,Forest & Di Salvo,-121.9367955,37.32696725,VTA,23,23,DE ANZA COL - ALUM ROCK TRANS CTR
58,592,Bellerose & Clarmar,-121.9360274,37.32630657,VTA,23,23,DE ANZA COL - ALUM ROCK TRANS CTR
59,593,Stevens Creek & Bradley,-121.9335682,37.32328628,VTA,23,23,DE ANZA COL - ALUM ROCK TRANS CTR
60,594,San Carlos & Bascom,-121.9311571,37.32328583,VTA,23,23,DE ANZA COL - ALUM ROCK TRANS CTR
61,595,San Carlos & Arleta,-121.9296007,37.32329188,VTA,23,23,DE ANZA COL - ALUM ROCK TRANS CTR
62,596,San Carlos & Leland,-121.9263703,37.32331004,VTA,23,23,DE ANZA COL - ALUM ROCK TRANS CTR
63,597,San Carlos & Leigh,-121.923171,37.32332679,VTA,23,23,DE ANZA COL - ALUM ROCK TRANS CTR
64,598,San Carlos & Buena Vista,-121.9193121,37.32334164,VTA,23,23,DE ANZA COL - ALUM ROCK TRANS CTR
65,599,San Carlos & Willard,-121.91701280000001,37.32335628,VTA,23,23,DE ANZA COL - ALUM ROCK TRANS CTR
66,600,San Carlos & Grand,-121.9125307,37.32336659,VTA,23,23,DE ANZA COL - ALUM ROCK TRANS CTR
67,601,San Carlos & Lincoln,-121.90828570000001,37.32353143,VTA,23,23,DE ANZA COL - ALUM ROCK TRANS CTR
68,602,San Carlos & Sunol,-121.90582309999999,37.323626700000005,VTA,23,23,DE ANZA COL - ALUM ROCK TRANS CTR
69,603,San Carlos & Bird,-121.8998544,37.3248578,VTA,23,23,DE ANZA COL - ALUM ROCK TRANS CTR
70,604,San Carlos & Josefa,-121.89819080000001,37.32582143,VTA,23,23,DE ANZA COL - ALUM ROCK TRANS CTR
71,605,San Carlos & Delmas,-121.89537630000001,37.32747552,VTA,23,23,DE ANZA COL - ALUM ROCK TRANS CTR
72,606,San Carlos & Guadalupe River,-121.89313870000001,37.32851281,VTA,23,23,DE ANZA COL - ALUM ROCK TRANS CTR
73,607,San Carlos & Convention Center,-121.88904840000002,37.33034634,VTA,23,23,DE ANZA COL - ALUM ROCK TRANS CTR
74,1619,Valley Fair Transit Center (Bay 3),-121.94758859999999,37.32678369,VTA,23,23,DE ANZA COL - ALUM ROCK TRANS CTR
75,3026,Alum Rock & King,-121.85493249999999,37.35295232,VTA,23,23,DE ANZA COL - ALUM ROCK TRANS CTR
76,3027,Alum Rock & McCreery,-121.85202279999999,37.35433208,VTA,23,23,DE ANZA COL - ALUM ROCK TRANS CTR
77,3028,Alum Rock & Checkers,-121.8500284,37.3552826,VTA,23,23,DE ANZA COL - ALUM ROCK TRANS CTR
78,3029,Alum Rock & Jose Figueres,-121.8465292,37.35695297,VTA,23,23,DE ANZA COL - ALUM ROCK TRANS CTR
79,3030,Alum Rock & Jackson,-121.8429386,37.35865217,VTA,23,23,DE ANZA COL - ALUM ROCK TRANS CTR
80,3031,Alum Rock & Muirfield,-121.8383054,37.36084849,VTA,23,23,DE ANZA COL - ALUM ROCK TRANS CTR
81,3864,Capitol & Alum Rock,-121.83501319999999,37.36178937,VTA,23,23,DE ANZA COL - ALUM ROCK TRANS CTR
82,5320,Alum Rock Station (Bay 7),-121.8325632,37.35774871,VTA,23,23,DE ANZA COL - ALUM ROCK TRANS CTR
83,5460,1st & Paseo de San Antonio,-121.88774099999999,37.33237509,VTA,23,23,DE ANZA COL - ALUM ROCK TRANS CTR
84,5637,De Anza College Transit Center,-122.044494,37.322489000000004,VTA,23,23,DE ANZA COL - ALUM ROCK TRANS CTR
85,426,Alum Rock & King,-121.8561979,37.35262727,VTA,23,23,DE ANZA COL - ALUM ROCK TRANS CTR
86,428,Alum Rock & 33rd,-121.85890619999999,37.35133124,VTA,23,23,DE ANZA COL - ALUM ROCK TRANS CTR
87,429,Santa Clara & 28th,-121.8638747,37.34896366,VTA,23,23,DE ANZA COL - ALUM ROCK TRANS CTR
88,430,Santa Clara & 26th,-121.86622849999999,37.34784349,VTA,23,23,DE ANZA COL - ALUM ROCK TRANS CTR
89,431,Santa Clara & 24th,-121.8680196,37.34698249,VTA,23,23,DE ANZA COL - ALUM ROCK TRANS CTR
90,432,Santa Clara & 22nd,-121.8693128,37.34637423,VTA,23,23,DE ANZA COL - ALUM ROCK TRANS CTR
91,433,Santa Clara & 20th,-121.8721223,37.34507218,VTA,23,23,DE ANZA COL - ALUM ROCK TRANS CTR
92,434,Santa Clara & 17th,-121.8747098,37.34382795,VTA,23,23,DE ANZA COL - ALUM ROCK TRANS CTR
93,435,Santa Clara & 14th,-121.87746899999999,37.34250758,VTA,23,23,DE ANZA COL - ALUM ROCK TRANS CTR
94,436,Santa Clara & 13th,-121.87850790000002,37.34203236,VTA,23,23,DE ANZA COL - ALUM ROCK TRANS CTR
95,437,Santa Clara & 11th,-121.8803713,37.34115455,VTA,23,23,DE ANZA COL - ALUM ROCK TRANS CTR
96,438,Santa Clara & 7th,-121.88411119999999,37.33937882,VTA,23,23,DE ANZA COL - ALUM ROCK TRANS CTR
97,439,Santa Clara & 5th,-121.886197,37.338318,VTA,23,23,DE ANZA COL - ALUM ROCK TRANS CTR
98,618,San Carlos & Market,-121.8879946,37.33118188,VTA,23,23,DE ANZA COL - ALUM ROCK TRANS CTR
99,619,San Carlos & Market,-121.89034879999998,37.33007133,VTA,23,23,DE ANZA COL - ALUM ROCK TRANS CTR
100,620,San Carlos & Woz Way,-121.89364990000001,37.32847242,VTA,23,23,DE ANZA COL - ALUM ROCK TRANS CTR
101,621,San Carlos & Delmas,-121.8959196,37.32744771,VTA,23,23,DE ANZA COL - ALUM ROCK TRANS CTR
102,622,San Carlos & Gifford,-121.89754029999999,37.32642743,VTA,23,23,DE ANZA COL - ALUM ROCK TRANS CTR
103,623,San Carlos & Josefa,-121.89877549999999,37.32574505,VTA,23,23,DE ANZA COL - ALUM ROCK TRANS CTR
104,624,San Carlos & Bird,-121.9001656,37.32491608,VTA,23,23,DE ANZA COL - ALUM ROCK TRANS CTR
105,625,San Carlos & Sunol,-121.9059381,37.32384274,VTA,23,23,DE ANZA COL - ALUM ROCK TRANS CTR
106,626,San Carlos & Lincoln,-121.9092355,37.32370104,VTA,23,23,DE ANZA COL - ALUM ROCK TRANS CTR
107,628,San Carlos & Meridian,-121.914929,37.32359938,VTA,23,23,DE ANZA COL - ALUM ROCK TRANS CTR
108,629,San Carlos & Buena Vista,-121.9185446,37.32356754,VTA,23,23,DE ANZA COL - ALUM ROCK TRANS CTR
109,630,San Carlos & Menker,-121.9218838,37.32355287,VTA,23,23,DE ANZA COL - ALUM ROCK TRANS CTR
110,631,San Carlos & Shasta,-121.92412479999999,37.32354339,VTA,23,23,DE ANZA COL - ALUM ROCK TRANS CTR
111,632,San Carlos & Wabash,-121.92711729999999,37.32352075,VTA,23,23,DE ANZA COL - ALUM ROCK TRANS CTR
112,633,San Carlos & Brooklyn,-121.92897520000001,37.32351899,VTA,23,23,DE ANZA COL - ALUM ROCK TRANS CTR
113,634,San Carlos & Bascom,-121.931601,37.323522,VTA,23,23,DE ANZA COL - ALUM ROCK TRANS CTR
114,635,Stevens Creek & Bradley,-121.93413590000002,37.32347498,VTA,23,23,DE ANZA COL - ALUM ROCK TRANS CTR
115,636,Di Salvo & Bailey,-121.9370243,37.32521799,VTA,23,23,DE ANZA COL - ALUM ROCK TRANS CTR
116,637,Forest at O'Conner Hospital,-121.93802920000002,37.32714086,VTA,23,23,DE ANZA COL - ALUM ROCK TRANS CTR
117,638,Forest & Monroe,-121.9436413,37.32706537,VTA,23,23,DE ANZA COL - ALUM ROCK TRANS CTR
118,640,Winchester & Dorcich,-121.9503034,37.32527816,VTA,23,23,DE ANZA COL - ALUM ROCK TRANS CTR
119,641,Stevens Creek & Winchester,-121.9518544,37.32343482,VTA,23,23,DE ANZA COL - ALUM ROCK TRANS CTR
120,642,Stevens Creek & Henry,-121.95562849999999,37.32342281,VTA,23,23,DE ANZA COL - ALUM ROCK TRANS CTR
121,643,Stevens Creek & Cypress,-121.96016999999999,37.32340069,VTA,23,23,DE ANZA COL - ALUM ROCK TRANS CTR
122,644,Stevens Creek & San Tomas,-121.9654025,37.32336776,VTA,23,23,DE ANZA COL - ALUM ROCK TRANS CTR
123,645,Stevens Creek & Saratoga,-121.97037279999999,37.32332421,VTA,23,23,DE ANZA COL - ALUM ROCK TRANS CTR
124,646,Stevens Creek & Kiely,-121.97588689999999,37.32328938,VTA,23,23,DE ANZA COL - ALUM ROCK TRANS CTR
125,647,Stevens Creek & Lopina,-121.9791009,37.32327127,VTA,23,23,DE ANZA COL - ALUM ROCK TRANS CTR
126,648,Stevens Creek & Woodhams,-121.98270890000002,37.32325072,VTA,23,23,DE ANZA COL - ALUM ROCK TRANS CTR
127,649,Stevens Creek & Cronin,-121.98697890000001,37.32322909,VTA,23,23,DE ANZA COL - ALUM ROCK TRANS CTR
128,650,Stevens Creek & Rodonovan,-121.9906025,37.32320049,VTA,23,23,DE ANZA COL - ALUM ROCK TRANS CTR
129,651,Stevens Creek & Cabot,-121.9929769,37.32318208,VTA,23,23,DE ANZA COL - ALUM ROCK TRANS CTR
130,653,Stevens Creek & Interstate 280,-122.0024121,37.32313643,VTA,23,23,DE ANZA COL - ALUM ROCK TRANS CTR
131,654,Stevens Creek & Tantau,-122.00695479999999,37.3231608,VTA,23,23,DE ANZA COL - ALUM ROCK TRANS CTR
132,655,Stevens Creek & Finch,-122.0109064,37.323102500000005,VTA,23,23,DE ANZA COL - ALUM ROCK TRANS CTR
133,656,Stevens Creek & Wolfe,-122.0151232,37.32308347,VTA,23,23,DE ANZA COL - ALUM ROCK TRANS CTR
134,657,Stevens Creek & Portal,-122.02000819999999,37.32307666,VTA,23,23,DE ANZA COL - ALUM ROCK TRANS CTR
135,658,Stevens Creek & Blaney,-122.0235778,37.32306134,VTA,23,23,DE ANZA COL - ALUM ROCK TRANS CTR
136,659,Stevens Creek & Vista,-122.0279756,37.32304871,VTA,23,23,DE ANZA COL - ALUM ROCK TRANS CTR
137,660,STEVENS CREEK & DE ANZA,-122.0332038,37.32303905,VTA,23,23,DE ANZA COL - ALUM ROCK TRANS CTR
138,661,Stevens Creek & Saich,-122.03637040000001,37.32303978,VTA,23,23,DE ANZA COL - ALUM ROCK TRANS CTR
139,662,Stevens Creek & Stelling,-122.04226670000001,37.32304096,VTA,23,23,DE ANZA COL - ALUM ROCK TRANS CTR
140,1668,Valley Fair Transit Center (Bay 4),-121.94771750000001,37.32670967,VTA,23,23,DE ANZA COL - ALUM ROCK TRANS CTR
141,3065,Alum Rock & Capitol,-121.83578059999999,37.36228342,VTA,23,23,DE ANZA COL - ALUM ROCK TRANS CTR
142,3067,Alum Rock & Jackson,-121.84314350000001,37.35879963,VTA,23,23,DE ANZA COL - ALUM ROCK TRANS CTR
143,3069,Alum Rock & Jose Figueres,-121.846571,37.357178000000005,VTA,23,23,DE ANZA COL - ALUM ROCK TRANS CTR
144,3070,Alum Rock & Sunset,-121.84897649999999,37.35603329,VTA,23,23,DE ANZA COL - ALUM ROCK TRANS CTR
145,3071,Alum Rock & McCreery,-121.85168130000001,37.35477585,VTA,23,23,DE ANZA COL - ALUM ROCK TRANS CTR
146,4655,San Carlos & 2nd,-121.88645600000001,37.33192114,VTA,23,23,DE ANZA COL - ALUM ROCK TRANS CTR
147,5320,Alum Rock Station (Bay 7),-121.8325632,37.35774871,VTA,23,23,DE ANZA COL - ALUM ROCK TRANS CTR
148,5462,2nd & Paseo de San Antonio,-121.88760719999999,37.33411175,VTA,23,23,DE ANZA COL - ALUM ROCK TRANS CTR
149,5513,2nd & Santa Clara,-121.889215,37.336236,VTA,23,23,DE ANZA COL - ALUM ROCK TRANS CTR
150,5637,De Anza College Transit Center,-122.044494,37.322489000000004,VTA,23,23,DE ANZA COL - ALUM ROCK TRANS CTR
151,6001,San Carlos & Meridian,-121.91339099999999,37.323627,VTA,23,23,DE ANZA COL - ALUM ROCK TRANS CTR
152,661,Stevens Creek & Saich,-122.03637040000001,37.32303978,VTA,25,25,DE ANZA COL - ALUM ROCK TRANS CTR
153,695,Saich & Stevens Creek,-122.03721440000001,37.32409355,VTA,25,25,DE ANZA COL - ALUM ROCK TRANS CTR
154,696,Alves & Park Circle,-122.03495990000002,37.32507218,VTA,25,25,DE ANZA COL - ALUM ROCK TRANS CTR
155,698,Stelling & Pepper Tree,-122.04156110000001,37.31916328,VTA,25,25,DE ANZA COL - ALUM ROCK TRANS CTR
156,699,McClellan & Stelling,-122.03937179999998,37.31554791,VTA,25,25,DE ANZA COL - ALUM ROCK TRANS CTR
157,700,McClellan & Felton,-122.0337163,37.31554604,VTA,25,25,DE ANZA COL - ALUM ROCK TRANS CTR
158,701,Bollinger & De Anza,-122.0307653,37.31197525,VTA,25,25,DE ANZA COL - ALUM ROCK TRANS CTR
159,702,Bollinger & Blaney,-122.02293799999998,37.30969908,VTA,25,25,DE ANZA COL - ALUM ROCK TRANS CTR
160,703,Bollinger & Alderbrook,-122.0175173,37.31003786,VTA,25,25,DE ANZA COL - ALUM ROCK TRANS CTR
161,704,Bollinger & Miller,-122.0116763,37.31039433,VTA,25,25,DE ANZA COL - ALUM ROCK TRANS CTR
162,705,Bollinger & Tullipan,-122.00840840000001,37.31062089,VTA,25,25,DE ANZA COL - ALUM ROCK TRANS CTR
163,706,Bollinger & Johnson,-122.0026805,37.310156799999994,VTA,25,25,DE ANZA COL - ALUM ROCK TRANS CTR
164,707,Bollinger & Wunderlich,-121.99789650000001,37.30966829,VTA,25,25,DE ANZA COL - ALUM ROCK TRANS CTR
165,708,Moorpark & Lawrence,-121.99528090000001,37.30941511,VTA,25,25,DE ANZA COL - ALUM ROCK TRANS CTR
166,709,Williams & Moorpark,-121.99329009999998,37.30882386,VTA,25,25,DE ANZA COL - ALUM ROCK TRANS CTR
167,710,Williams & Happy Valley,-121.99020690000002,37.30847647,VTA,25,25,DE ANZA COL - ALUM ROCK TRANS CTR
168,711,Williams & Marilla,-121.9837712,37.30851945,VTA,25,25,DE ANZA COL - ALUM ROCK TRANS CTR
169,712,Williams & Pinewood,-121.9820453,37.30849392,VTA,25,25,DE ANZA COL - ALUM ROCK TRANS CTR
170,713,Williams & Saratoga,-121.97711740000001,37.30805817,VTA,25,25,DE ANZA COL - ALUM ROCK TRANS CTR
171,714,Williams & Ranchero,-121.9737316,37.30813445,VTA,25,25,DE ANZA COL - ALUM ROCK TRANS CTR
172,715,Williams & Oakmont,-121.9702191,37.30820883,VTA,25,25,DE ANZA COL - ALUM ROCK TRANS CTR
173,716,Williams & Boynton,-121.96550829999998,37.30851629,VTA,25,25,DE ANZA COL - ALUM ROCK TRANS CTR
174,717,Williams & Phelps,-121.9605639,37.30872938,VTA,25,25,DE ANZA COL - ALUM ROCK TRANS CTR
175,718,Williams & Calboro,-121.9580388,37.30873465,VTA,25,25,DE ANZA COL - ALUM ROCK TRANS CTR
176,719,Williams & Eden,-121.95483370000001,37.30874684,VTA,25,25,DE ANZA COL - ALUM ROCK TRANS CTR
177,720,Williams & Winchester,-121.9512879,37.30875259,VTA,25,25,DE ANZA COL - ALUM ROCK TRANS CTR
178,721,Winchester & Neal,-121.9498998,37.31177175,VTA,25,25,DE ANZA COL - ALUM ROCK TRANS CTR
179,722,Winchester & Magliocco,-121.9499098,37.31327267,VTA,25,25,DE ANZA COL - ALUM ROCK TRANS CTR
180,723,Moorpark & Winchester,-121.949408,37.31596076,VTA,25,25,DE ANZA COL - ALUM ROCK TRANS CTR
181,724,Moorpark & Monroe,-121.94295349999999,37.31598714,VTA,25,25,DE ANZA COL - ALUM ROCK TRANS CTR
182,725,Moorpark & Thornton,-121.93918329999998,37.315994700000005,VTA,25,25,DE ANZA COL - ALUM ROCK TRANS CTR
183,727,Clove & Thornton,-121.93835020000002,37.3124321,VTA,25,25,DE ANZA COL - ALUM ROCK TRANS CTR
184,728,Clove & Ginger,-121.93648600000002,37.31243567,VTA,25,25,DE ANZA COL - ALUM ROCK TRANS CTR
185,731,Bascom & Renova,-121.9319754,37.31378326,VTA,25,25,DE ANZA COL - ALUM ROCK TRANS CTR
186,732,Fruitdale & Bascom,-121.9309654,37.31060128,VTA,25,25,DE ANZA COL - ALUM ROCK TRANS CTR
187,733,Fruitdale & Sherman Oaks,-121.92619009999999,37.31061237,VTA,25,25,DE ANZA COL - ALUM ROCK TRANS CTR
188,734,Fruitdale & Leigh,-121.923593,37.3106095,VTA,25,25,DE ANZA COL - ALUM ROCK TRANS CTR
189,735,Fruitdale & College,-121.91904699999999,37.31061679999999,VTA,25,25,DE ANZA COL - ALUM ROCK TRANS CTR
190,736,Fruitdale & Southwest Expressway,-121.9166928,37.31060006,VTA,25,25,DE ANZA COL - ALUM ROCK TRANS CTR
191,737,Meridian & Fruitdale,-121.9138315,37.31016351,VTA,25,25,DE ANZA COL - ALUM ROCK TRANS CTR
192,738,Meridian & Westwood,-121.91376770000001,37.30596484,VTA,25,25,DE ANZA COL - ALUM ROCK TRANS CTR
193,739,Willow & Meridian,-121.9131594,37.30382363,VTA,25,25,DE ANZA COL - ALUM ROCK TRANS CTR
194,740,Willow & Camino Ramon,-121.9083581,37.30508797,VTA,25,25,DE ANZA COL - ALUM ROCK TRANS CTR
195,741,Willow & Cherry,-121.90619099999999,37.30607444,VTA,25,25,DE ANZA COL - ALUM ROCK TRANS CTR
196,742,Willow & Carolyn,-121.9050618,37.30658301,VTA,25,25,DE ANZA COL - ALUM ROCK TRANS CTR
197,743,Willow & Crescent,-121.9035527,37.30726454,VTA,25,25,DE ANZA COL - ALUM ROCK TRANS CTR
198,744,Willow & Lincoln,-121.90070700000001,37.30856102,VTA,25,25,DE ANZA COL - ALUM ROCK TRANS CTR
199,745,Willow & Kotenberg,-121.8977824,37.309885200000004,VTA,25,25,DE ANZA COL - ALUM ROCK TRANS CTR
200,746,Willow & Bird,-121.8950584,37.31139752,VTA,25,25,DE ANZA COL - ALUM ROCK TRANS CTR
201,747,Willow & Delmas,-121.8939179,37.31205365,VTA,25,25,DE ANZA COL - ALUM ROCK TRANS CTR
202,748,Willow & Spencer,-121.89208980000001,37.31312543,VTA,25,25,DE ANZA COL - ALUM ROCK TRANS CTR
203,749,Willow & Minnesota,-121.89026329999999,37.31419292,VTA,25,25,DE ANZA COL - ALUM ROCK TRANS CTR
204,750,Tamien Station,-121.88466799999999,37.311054,VTA,25,25,DE ANZA COL - ALUM ROCK TRANS CTR
205,751,Willow & Palm,-121.8847524,37.31738986,VTA,25,25,DE ANZA COL - ALUM ROCK TRANS CTR
206,752,Willow & Almaden,-121.8823231,37.31879478,VTA,25,25,DE ANZA COL - ALUM ROCK TRANS CTR
207,753,Graham & Mastic,-121.88021509999999,37.31904414,VTA,25,25,DE ANZA COL - ALUM ROCK TRANS CTR
208,754,Keyes & 1st,-121.87731780000001,37.32009254,VTA,25,25,DE ANZA COL - ALUM ROCK TRANS CTR
209,755,Keyes & 5th,-121.87441740000001,37.321433500000005,VTA,25,25,DE ANZA COL - ALUM ROCK TRANS CTR
210,756,Keyes & 7th,-121.871517,37.32280754,VTA,25,25,DE ANZA COL - ALUM ROCK TRANS CTR
211,757,Keyes & 10th,-121.8681886,37.32438343,VTA,25,25,DE ANZA COL - ALUM ROCK TRANS CTR
212,758,Keyes & 12th,-121.86636670000001,37.32523393,VTA,25,25,DE ANZA COL - ALUM ROCK TRANS CTR
213,759,Story & Roberts,-121.8589308,37.32894119,VTA,25,25,DE ANZA COL - ALUM ROCK TRANS CTR
214,760,Story & Lucretia,-121.8569119,37.33035365,VTA,25,25,DE ANZA COL - ALUM ROCK TRANS CTR
215,761,Story & McLaughlin,-121.85318059999999,37.3328792,VTA,25,25,DE ANZA COL - ALUM ROCK TRANS CTR
216,762,Story & King,-121.84263770000001,37.34003791,VTA,25,25,DE ANZA COL - ALUM ROCK TRANS CTR
217,763,Story & Bal Harbor,-121.8404134,37.3415554,VTA,25,25,DE ANZA COL - ALUM ROCK TRANS CTR
218,764,Story & Hopkins,-121.8371419,37.34376361,VTA,25,25,DE ANZA COL - ALUM ROCK TRANS CTR
219,765,Story & Karl,-121.834503,37.345555,VTA,25,25,DE ANZA COL - ALUM ROCK TRANS CTR
220,766,Story & Jackson,-121.8319242,37.34731133,VTA,25,25,DE ANZA COL - ALUM ROCK TRANS CTR
221,767,Story & Leeward,-121.8302741,37.34843129,VTA,25,25,DE ANZA COL - ALUM ROCK TRANS CTR
222,768,Story & Capitol,-121.8277899,37.35010498,VTA,25,25,DE ANZA COL - ALUM ROCK TRANS CTR
223,769,Story & McGinness,-121.82403670000001,37.35271505,VTA,25,25,DE ANZA COL - ALUM ROCK TRANS CTR
224,770,Story & Lyndale,-121.8219048,37.35415506,VTA,25,25,DE ANZA COL - ALUM ROCK TRANS CTR
225,2874,Bascom & Moorpark,-121.9319869,37.31563851,VTA,25,25,DE ANZA COL - ALUM ROCK TRANS CTR
226,3062,Alum Rock & White,-121.8284683,37.36573888,VTA,25,25,DE ANZA COL - ALUM ROCK TRANS CTR
227,3063,Alum Rock & Cedar,-121.8306989,37.36468191,VTA,25,25,DE ANZA COL - ALUM ROCK TRANS CTR
228,3064,Alum Rock & Pleasantridge,-121.83303490000002,37.3635813,VTA,25,25,DE ANZA COL - ALUM ROCK TRANS CTR
229,3600,White & Story,-121.8197211,37.35696063,VTA,25,25,DE ANZA COL - ALUM ROCK TRANS CTR
230,3601,White & Buckner,-121.82115729999998,37.35850713,VTA,25,25,DE ANZA COL - ALUM ROCK TRANS CTR
231,3602,White & Easthills,-121.82375459999999,37.36135865,VTA,25,25,DE ANZA COL - ALUM ROCK TRANS CTR
232,3603,White & Florence,-121.8256604,37.36344774,VTA,25,25,DE ANZA COL - ALUM ROCK TRANS CTR
233,3864,Capitol & Alum Rock,-121.83501319999999,37.36178937,VTA,25,25,DE ANZA COL - ALUM ROCK TRANS CTR
234,5047,Alum Rock Station (Bay 3),-121.8327807,37.35827597,VTA,25,25,DE ANZA COL - ALUM ROCK TRANS CTR
235,5695,Meridian & Curci,-121.913801,37.307552,VTA,25,25,DE ANZA COL - ALUM ROCK TRANS CTR
236,5727,Ginger & Middle,-121.9362983,37.31378813,VTA,25,25,DE ANZA COL - ALUM ROCK TRANS CTR
237,5823,Story & Remillard,-121.860448,37.327959,VTA,25,25,DE ANZA COL - ALUM ROCK TRANS CTR
238,6008,Stelling & Stevens Creek,-122.04166299999999,37.322226,VTA,25,25,DE ANZA COL - ALUM ROCK TRANS CTR
239,695,Saich & Stevens Creek,-122.03721440000001,37.32409355,VTA,25,25,DE ANZA COL - ALUM ROCK TRANS CTR
240,727,Clove & Thornton,-121.93835020000002,37.3124321,VTA,25,25,DE ANZA COL - ALUM ROCK TRANS CTR
241,728,Clove & Ginger,-121.93648600000002,37.31243567,VTA,25,25,DE ANZA COL - ALUM ROCK TRANS CTR
242,750,Tamien Station,-121.88466799999999,37.311054,VTA,25,25,DE ANZA COL - ALUM ROCK TRANS CTR
243,780,White & Woodhaven,-121.8222005,37.35934929,VTA,25,25,DE ANZA COL - ALUM ROCK TRANS CTR
244,781,Story & White,-121.8196528,37.35591593,VTA,25,25,DE ANZA COL - ALUM ROCK TRANS CTR
245,782,Story & Lyndale,-121.8227737,37.35385147,VTA,25,25,DE ANZA COL - ALUM ROCK TRANS CTR
246,783,Story & McGinness,-121.82469679999998,37.35254849,VTA,25,25,DE ANZA COL - ALUM ROCK TRANS CTR
247,784,Story & Capitol,-121.82750990000001,37.35063184,VTA,25,25,DE ANZA COL - ALUM ROCK TRANS CTR
248,785,Story & Leeward,-121.83048980000001,37.34861105,VTA,25,25,DE ANZA COL - ALUM ROCK TRANS CTR
249,786,Story & Jackson,-121.8334613,37.34659861,VTA,25,25,DE ANZA COL - ALUM ROCK TRANS CTR
250,787,Story & Hopkins,-121.8375429,37.34383801,VTA,25,25,DE ANZA COL - ALUM ROCK TRANS CTR
251,788,Story & McCreery,-121.84075729999999,37.34165707,VTA,25,25,DE ANZA COL - ALUM ROCK TRANS CTR
252,789,Story & King,-121.8424687,37.3404968,VTA,25,25,DE ANZA COL - ALUM ROCK TRANS CTR
253,790,Story & McLaughlin,-121.8547327,37.33217265,VTA,25,25,DE ANZA COL - ALUM ROCK TRANS CTR
254,791,Story & Lucretia,-121.8580051,37.32997482,VTA,25,25,DE ANZA COL - ALUM ROCK TRANS CTR
255,792,Keyes & 12th,-121.86631070000001,37.32562363,VTA,25,25,DE ANZA COL - ALUM ROCK TRANS CTR
256,793,Keyes & 10th,-121.869151,37.32412791,VTA,25,25,DE ANZA COL - ALUM ROCK TRANS CTR
257,794,Keyes & 7th,-121.87223059999998,37.32266789,VTA,25,25,DE ANZA COL - ALUM ROCK TRANS CTR
258,795,Keyes & 5th,-121.8746929,37.32149992,VTA,25,25,DE ANZA COL - ALUM ROCK TRANS CTR
259,796,Goodyear & 1st,-121.87808759999999,37.31987052,VTA,25,25,DE ANZA COL - ALUM ROCK TRANS CTR
260,797,Willow & Almaden,-121.8824265,37.31885413,VTA,25,25,DE ANZA COL - ALUM ROCK TRANS CTR
261,798,Willow & Palm,-121.8852814,37.31720263,VTA,25,25,DE ANZA COL - ALUM ROCK TRANS CTR
262,799,Willow & Minnesota,-121.8902922,37.31431575,VTA,25,25,DE ANZA COL - ALUM ROCK TRANS CTR
263,800,Willow & Spencer,-121.8924169,37.31308339,VTA,25,25,DE ANZA COL - ALUM ROCK TRANS CTR
264,801,Willow & Shepherd,-121.8937751,37.31230376,VTA,25,25,DE ANZA COL - ALUM ROCK TRANS CTR
265,802,Willow & Bird,-121.8965287,37.31068699,VTA,25,25,DE ANZA COL - ALUM ROCK TRANS CTR
266,803,Willow & Chabrant,-121.8979259,37.30995073,VTA,25,25,DE ANZA COL - ALUM ROCK TRANS CTR
267,804,Willow & Lincoln,-121.90082,37.308679999999995,VTA,25,25,DE ANZA COL - ALUM ROCK TRANS CTR
268,805,Willow & Carolyn,-121.90509340000001,37.30669111,VTA,25,25,DE ANZA COL - ALUM ROCK TRANS CTR
269,806,Willow & Camino Ramon,-121.9084844,37.30515544,VTA,25,25,DE ANZA COL - ALUM ROCK TRANS CTR
270,807,Willow & Glen Eyre,-121.91033370000001,37.30432145,VTA,25,25,DE ANZA COL - ALUM ROCK TRANS CTR
271,808,Meridian & Willow,-121.9135092,37.30419463,VTA,25,25,DE ANZA COL - ALUM ROCK TRANS CTR
272,809,Meridian & Westwood,-121.9135304,37.3063909,VTA,25,25,DE ANZA COL - ALUM ROCK TRANS CTR
273,810,Fruitdale & Meridian,-121.9149395,37.31078598,VTA,25,25,DE ANZA COL - ALUM ROCK TRANS CTR
274,811,Fruitdale & Southwest Expressway,-121.91601599999998,37.310795,VTA,25,25,DE ANZA COL - ALUM ROCK TRANS CTR
275,812,Fruitdale & Goodwin,-121.9202778,37.31078443,VTA,25,25,DE ANZA COL - ALUM ROCK TRANS CTR
276,813,Fruitdale & Leigh,-121.9235207,37.31077739,VTA,25,25,DE ANZA COL - ALUM ROCK TRANS CTR
277,814,Fruitdale & Sherman Oaks,-121.927361,37.31077888,VTA,25,25,DE ANZA COL - ALUM ROCK TRANS CTR
278,820,Moorpark & Thornton,-121.93921599999999,37.31616523,VTA,25,25,DE ANZA COL - ALUM ROCK TRANS CTR
279,821,Moorpark & Monroe,-121.94224059999999,37.31616423,VTA,25,25,DE ANZA COL - ALUM ROCK TRANS CTR
280,822,Winchester & Moorpark,-121.95026509999998,37.31559504,VTA,25,25,DE ANZA COL - ALUM ROCK TRANS CTR
281,823,Winchester & Magliocco,-121.9502465,37.31383316,VTA,25,25,DE ANZA COL - ALUM ROCK TRANS CTR
282,824,Winchester & Neal,-121.95021979999999,37.31158096,VTA,25,25,DE ANZA COL - ALUM ROCK TRANS CTR
283,825,Williams & Winchester,-121.95080859999999,37.30895662,VTA,25,25,DE ANZA COL - ALUM ROCK TRANS CTR
284,826,Williams & Eden,-121.9555864,37.3089088,VTA,25,25,DE ANZA COL - ALUM ROCK TRANS CTR
285,827,Williams & Calboro,-121.95825249999999,37.30889483,VTA,25,25,DE ANZA COL - ALUM ROCK TRANS CTR
286,828,Williams & Cypress,-121.96020109999999,37.30889037,VTA,25,25,DE ANZA COL - ALUM ROCK TRANS CTR
287,829,Williams & Boynton,-121.96708999999998,37.308546299999996,VTA,25,25,DE ANZA COL - ALUM ROCK TRANS CTR
288,830,Williams & Oakmont,-121.97050700000001,37.3083667,VTA,25,25,DE ANZA COL - ALUM ROCK TRANS CTR
289,831,Williams & Orchid,-121.97425659999999,37.30829086,VTA,25,25,DE ANZA COL - ALUM ROCK TRANS CTR
290,832,Williams & Saratoga,-121.9781705,37.30826755,VTA,25,25,DE ANZA COL - ALUM ROCK TRANS CTR
291,833,Williams & Leo,-121.98150729999999,37.30860317,VTA,25,25,DE ANZA COL - ALUM ROCK TRANS CTR
292,834,Williams & Rockdale,-121.9851361,37.30867864,VTA,25,25,DE ANZA COL - ALUM ROCK TRANS CTR
293,835,Williams & Happy Valley,-121.9895947,37.30864595,VTA,25,25,DE ANZA COL - ALUM ROCK TRANS CTR
294,836,Moorpark & Lawrence,-121.99462759999999,37.30958826,VTA,25,25,DE ANZA COL - ALUM ROCK TRANS CTR
295,837,Bollinger & Wunderlich,-121.998471,37.30993465,VTA,25,25,DE ANZA COL - ALUM ROCK TRANS CTR
296,838,Bollinger & Johnson,-122.0033102,37.31040555,VTA,25,25,DE ANZA COL - ALUM ROCK TRANS CTR
297,839,Bollinger & Tantau,-122.00822050000001,37.31079914,VTA,25,25,DE ANZA COL - ALUM ROCK TRANS CTR
298,840,Bollinger & Miller,-122.0142863,37.3104071,VTA,25,25,DE ANZA COL - ALUM ROCK TRANS CTR
299,841,Bollinger & Alderbrook,-122.0179456,37.31017748,VTA,25,25,DE ANZA COL - ALUM ROCK TRANS CTR
300,842,Bollinger & Blaney,-122.0238561,37.31015393,VTA,25,25,DE ANZA COL - ALUM ROCK TRANS CTR
301,843,Bollinger & Faralone,-122.026159,37.31081692,VTA,25,25,DE ANZA COL - ALUM ROCK TRANS CTR
302,844,De Anza & Bollinger,-122.0320555,37.31276262,VTA,25,25,DE ANZA COL - ALUM ROCK TRANS CTR
303,845,McClellan & Felton,-122.0339467,37.31565305,VTA,25,25,DE ANZA COL - ALUM ROCK TRANS CTR
304,846,Stelling & McClellan,-122.04134690000001,37.31612291,VTA,25,25,DE ANZA COL - ALUM ROCK TRANS CTR
305,847,Stelling & Pepper Tree,-122.0413545,37.32014927,VTA,25,25,DE ANZA COL - ALUM ROCK TRANS CTR
306,848,Stelling & Stevens Creek,-122.04136270000001,37.32226028,VTA,25,25,DE ANZA COL - ALUM ROCK TRANS CTR
307,3038,Alum Rock & Capitol,-121.834753,37.36250108,VTA,25,25,DE ANZA COL - ALUM ROCK TRANS CTR
308,3039,Alum Rock & Pleasantridge,-121.83279840000002,37.36344629,VTA,25,25,DE ANZA COL - ALUM ROCK TRANS CTR
309,3040,Alum Rock & Cedar,-121.83094479999998,37.36432104,VTA,25,25,DE ANZA COL - ALUM ROCK TRANS CTR
310,3041,Alum Rock & White,-121.8287182,37.36537836,VTA,25,25,DE ANZA COL - ALUM ROCK TRANS CTR
311,3681,White & Rose,-121.82750209999999,37.36513187,VTA,25,25,DE ANZA COL - ALUM ROCK TRANS CTR
312,3682,White & Easthills,-121.82522069999999,37.3626152,VTA,25,25,DE ANZA COL - ALUM ROCK TRANS CTR
313,5047,Alum Rock Station (Bay 3),-121.8327807,37.35827597,VTA,25,25,DE ANZA COL - ALUM ROCK TRANS CTR
314,5696,Meridian & Curci,-121.91342399999999,37.308053,VTA,25,25,DE ANZA COL - ALUM ROCK TRANS CTR
315,5727,Ginger & Middle,-121.9362983,37.31378813,VTA,25,25,DE ANZA COL - ALUM ROCK TRANS CTR
316,5824,Story & Remillard,-121.860702,37.328127,VTA,25,25,DE ANZA COL - ALUM ROCK TRANS CTR
317,328,Palo Alto Transit Center (Bay 10),-122.16576270000002,37.44375005,VTA,522,522,PALO ALTO - EASTRIDGE
318,335,El Camino & California,-122.145651,37.42478741,VTA,522,522,PALO ALTO - EASTRIDGE
319,343,El Camino & Arastradero,-122.12291370000001,37.40965755,VTA,522,522,PALO ALTO - EASTRIDGE
320,347,El Camino & Showers,-122.11031969999999,37.39933076,VTA,522,522,PALO ALTO - EASTRIDGE
321,355,El Camino & Castro,-122.08292069999999,37.38507226,VTA,522,522,PALO ALTO - EASTRIDGE
322,361,El Camino & Knickerbocker,-122.0575136,37.37415957,VTA,522,522,PALO ALTO - EASTRIDGE
323,364,El Camino & Hollenbeck,-122.04167959999998,37.37014166,VTA,522,522,PALO ALTO - EASTRIDGE
324,368,El Camino & Remington,-122.0243223,37.36101412,VTA,522,522,PALO ALTO - EASTRIDGE
325,370,El Camino & Wolfe,-122.01339890000001,37.35260761,VTA,522,522,PALO ALTO - EASTRIDGE
326,373,El Camino & Halford,-121.99857379999999,37.35212246,VTA,522,522,PALO ALTO - EASTRIDGE
327,378,El Camino & Kiely,-121.97638789999999,37.35219924,VTA,522,522,PALO ALTO - EASTRIDGE
328,383,El Camino & Scott,-121.95863390000001,37.35222314,VTA,522,522,PALO ALTO - EASTRIDGE
329,400,The Alameda & Naglee,-121.9195697,37.33768370000001,VTA,522,522,PALO ALTO - EASTRIDGE
330,403,The Alameda & Hanchett,-121.91316040000001,37.33238352,VTA,522,522,PALO ALTO - EASTRIDGE
331,408,Santa Clara & Montgomery,-121.90162360000001,37.33185518,VTA,522,522,PALO ALTO - EASTRIDGE
332,413,Santa Clara & 6th,-121.885378,37.338508000000004,VTA,522,522,PALO ALTO - EASTRIDGE
333,418,Santa Clara & 17th,-121.8744753,37.34370412,VTA,522,522,PALO ALTO - EASTRIDGE
334,420,Santa Clara & 24th,-121.86786200000002,37.346887,VTA,522,522,PALO ALTO - EASTRIDGE
335,1316,Santa Clara Transit Center (Bay 5),-121.93662520000001,37.35265971,VTA,522,522,PALO ALTO - EASTRIDGE
336,1884,Capitol & Ocala,-121.81975890000001,37.33997132,VTA,522,522,PALO ALTO - EASTRIDGE
337,4579,Capitol & Story,-121.82661409999999,37.34977525,VTA,522,522,PALO ALTO - EASTRIDGE
338,5812,Eastridge Transit Center (Bay 5),-121.810455,37.327199,VTA,522,522,PALO ALTO - EASTRIDGE
339,5846,Alum Rock Station (Bay 8),-121.83226499999999,37.357986,VTA,522,522,PALO ALTO - EASTRIDGE
340,5850,Santa Clara & 2nd,-121.889664,37.336489,VTA,522,522,PALO ALTO - EASTRIDGE
341,5856,Alum Rock & King,-121.855042,37.353017,VTA,522,522,PALO ALTO - EASTRIDGE
342,5858,Alum Rock & Jackson,-121.842996,37.358717,VTA,522,522,PALO ALTO - EASTRIDGE
343,431,Santa Clara & 24th,-121.8680196,37.34698249,VTA,522,522,PALO ALTO - EASTRIDGE
344,434,Santa Clara & 17th,-121.8747098,37.34382795,VTA,522,522,PALO ALTO - EASTRIDGE
345,439,Santa Clara & 5th,-121.886197,37.338318,VTA,522,522,PALO ALTO - EASTRIDGE
346,440,Santa Clara & 1st,-121.890221,37.336438,VTA,522,522,PALO ALTO - EASTRIDGE
347,445,Santa Clara & Cahill,-121.90171969999999,37.33207764,VTA,522,522,PALO ALTO - EASTRIDGE
348,449,The Alameda & Julian,-121.91222739999999,37.33192053,VTA,522,522,PALO ALTO - EASTRIDGE
349,452,The Alameda & Taylor,-121.9194459,37.33790865,VTA,522,522,PALO ALTO - EASTRIDGE
350,460,Santa Clara Transit Center (Bay 9),-121.9376127,37.3525673,VTA,522,522,PALO ALTO - EASTRIDGE
351,468,El Camino & Scott,-121.96050840000001,37.35251326,VTA,522,522,PALO ALTO - EASTRIDGE
352,472,El Camino & Bowers,-121.97661809999998,37.35251973,VTA,522,522,PALO ALTO - EASTRIDGE
353,477,El Camino & Lawrence,-121.9981625,37.35247555,VTA,522,522,PALO ALTO - EASTRIDGE
354,480,El Camino & Wolfe,-122.0149768,37.35377388,VTA,522,522,PALO ALTO - EASTRIDGE
355,482,El Camino & Fair Oaks,-122.02565929999999,37.36252064,VTA,522,522,PALO ALTO - EASTRIDGE
356,486,El Camino & Pastoria,-122.0413804,37.37036492,VTA,522,522,PALO ALTO - EASTRIDGE
357,489,El Camino & Bernardo,-122.0568321,37.37422358,VTA,522,522,PALO ALTO - EASTRIDGE
358,494,El Camino & Castro,-122.0844897,37.38620053,VTA,522,522,PALO ALTO - EASTRIDGE
359,500,El Camino & Showers,-122.11047350000001,37.39973804,VTA,522,522,PALO ALTO - EASTRIDGE
360,504,El Camino & Charleston,-122.12372520000001,37.41116103,VTA,522,522,PALO ALTO - EASTRIDGE
361,512,El Camino & California,-122.14610729999998,37.42535423,VTA,522,522,PALO ALTO - EASTRIDGE
362,519,Palo Alto Transit Center (Bay 1),-122.16603390000002,37.44377183,VTA,522,522,PALO ALTO - EASTRIDGE
363,3821,Capitol & Story,-121.8270878,37.35162683,VTA,522,522,PALO ALTO - EASTRIDGE
364,4581,Capitol & Ocala,-121.820765,37.34214499,VTA,522,522,PALO ALTO - EASTRIDGE
365,5810,Eastridge Transit Center (Bay 6),-121.81113700000002,37.327736,VTA,522,522,PALO ALTO - EASTRIDGE
366,5847,Alum Rock Station (Bay 9),-121.83199599999999,37.358323999999996,VTA,522,522,PALO ALTO - EASTRIDGE
367,5857,Alum Rock & King,-121.856177,37.352562,VTA,522,522,PALO ALTO - EASTRIDGE
368,5859,Alum Rock & Jackson,-121.844067,37.358295,VTA,522,522,PALO ALTO - EASTRIDGE
